T,Px,Py,Pz,Vx,Vy,Vz,Roll,Pitch,Yaw,R_rate,P_rate,Y_rate,T,M1,M2,M3,Wb1,Wb2,Wb3
0,-0.021122751757502556,-0.01915307529270649,0.10132426768541336,0.0,0.0,0.0,-0.0749788899581737,-0.008076938138712571,-0.04044533084511688,0.0,0.0,0.0,0.0,0.0,0.0,0.0,0.0,0.0,0.0
0.0009584426879882812,-0.00011695104155086843,-0.00010610819105106106,0.0005615210339935487,-0.0001296453101528499,-0.00011762553933809336,0.0006224704598101292,-0.00041587863194269815,-4.587958725799974e-05,-0.0002243486119495832,0.0,0.0,0.0,0.0,0.0,0.0,0.0,0.0,0.0,0.0
0.010488271713256836,-0.0005589156329234932,-0.0005070663551367308,0.002683356437915718,-0.0009798188381766261,-0.0008889431441627127,0.0047042333823360885,-0.0019868629565278867,-0.00021926828149846704,-0.001072136331862988,0.0,0.0,0.0,0.0,0.0,0.0,0.0,0.0,0.0,0.0
0.016506433486938477,-0.0013682378640212968,-0.0012414859085473275,0.006569062689680642,-0.0036456046753147605,-0.003307628287330957,0.017502861079680597,-0.00486768926666696,-0.0005315090377881076,-0.0026250915023684628,0.0,0.0,0.0,0.0,0.0,0.0,0.0,0.0,0.0,0.0
0.026024341583251953,-0.002453619297859311,-0.0022270493440918106,0.011780919141742894,-0.009187013929621133,-0.008336476144338927,0.04410864675537423,-0.008733699723135136,-0.0009396901929742215,-0.00471156134675498,0.0,0.0,0.0,0.0,0.0,0.0,0.0,0.0,0.0,0.0
0.03202247619628906,-0.003735967334173966,-0.003392109814096965,0.017939046337983315,-0.01814599734495744,-0.016469499788397266,0.08712586760275098,-0.01329968675434278,-0.0014133281966069054,-0.0071821658644721405,0.0,0.0,0.0,0.0,0.0,0.0,0.0,0.0,0.0,0.0
0.04353928565979004,-0.005147766388971038,-0.004674740617261677,0.024718311538524988,-0.03052937251475384,-0.027714735664143203,0.14658829803461504,-0.018330904150602963,-0.0019309090870571418,-0.009902361780428458,0.0,0.0,0.0,0.0,0.0,0.0,0.0,0.0,0.0,0.0
0.049510955810546875,-0.006632024848375234,-0.006022749347119813,0.03184475840903615,-0.045966134066526554,-0.041735040858241194,0.22071272719450466,-0.02362628772290202,-0.0024755374097293757,-0.01275863698109738,0.0,0.0,0.0,0.0,0.0,0.0,0.0,0.0,0.0,0.0
0.058692216873168945,-0.008141310611789458,-0.007393204894801309,0.03909127543474959,-0.06383770382550674,-0.057966950197865394,0.306526514115689,-0.029014200443419926,-0.00303176082758385,-0.015661294197382842,0.0,0.0,0.0,0.0,0.0,0.0,0.0,0.0,0.0,0.0
0.06493067741394043,-0.009637365556657377,-0.0087512893548051,0.046273449846038,-0.08338399137995607,-0.07571856938675525,0.40037834880180423,-0.03435415972714665,-0.0035864463806008938,-0.018536878427183365,0.0,0.0,0.0,0.0,0.0,0.0,0.0,0.0,0.0,0.0
0.07087969779968262,-0.011089930804039428,-0.010069293392500865,0.05324507660557151,-0.10378823896025728,-0.09424663203150285,0.4983433452927886,-0.03953269885155458,-0.004129593899859448,-0.02132573124586107,0.0,0.0,0.0,0.0,0.0,0.0,0.0,0.0,0.0,0.0
0.07695579528808594,-0.012475371949516565,-0.01132583729902719,0.05989355780298677,-0.12424166594509632,-0.11281498251182995,0.5965338536408862,-0.044465772736878316,-0.00465238852318824,-0.023982339516748802,0.0,0.0,0.0,0.0,0.0,0.0,0.0,0.0,0.0,0.0
0.0825803279876709,-0.013776253032387126,-0.012505415825840761,0.06613570827302963,-0.14399023699246982,-0.1307379063274603,0.6913277053298262,-0.04909100952561416,-0.0051457530293957665,-0.026475876434815634,0.0,0.0,0.0,0.0,0.0,0.0,0.0,0.0,0.0,0.0
0.08824801445007324,-0.014980606221609575,-0.013597543680682743,0.07191348085685012,-0.16236762220893752,-0.1474108909404419,0.7795259688431655,-0.05336434443747397,-0.005596485146070799,-0.028788365003707787,0.0,0.0,0.0,0.0,0.0,0.0,0.0,0.0,0.0,0.0
0.09393477439880371,-0.01608068538099094,-0.014595538036397798,0.07719066930492546,-0.17881617406389055,-0.16232971009881084,0.85845211511197,-0.05726849489399624,-0.005996184456328612,-0.030905759308113713,0.0,0.0,0.0,0.0,0.0,0.0,0.0,0.0,0.0,0.0
0.0996243953704834,-0.017072646390564404,-0.015495962175448838,0.08195013234578452,-0.1928973887588328,-0.1750992198966014,0.9260047214269768,-0.06079428949641255,-0.006348931173129938,-0.0328186605780844,0.0,0.0,0.0,0.0,0.0,0.0,0.0,0.0,0.0,0.0
0.10534429550170898,-0.017956361459324225,-0.016298276314277604,0.086190246565314,-0.2042953458747143,-0.185435014024918,0.9806731846697252,-0.06392937061927371,-0.006662651153204084,-0.034524812231169065,0.0,0.0,0.0,0.0,0.0,0.0,0.0,0.0,0.0,0.0
0.11100530624389648,-0.018734127786782996,-0.017004093003800624,0.08992111273723077,-0.21281454750338866,-0.19316007783478129,1.0215220585633236,-0.06668050507237275,-0.0069442929875790866,-0.036023441310191806,0.0,0.0,0.0,0.0,0.0,0.0,0.0,0.0,0.0,0.0
0.11666345596313477,-0.019409609301144992,-0.017616996933587183,0.09316118303656862,-0.2183712759655384,-0.19819749026233718,1.0481496772618044,-0.0690671635357316,-0.007190571088893331,-0.037323944318506615,0.0,0.0,0.0,0.0,0.0,0.0,0.0,0.0,0.0,0.0
0.1223146915435791,-0.01998819059680259,-0.018142272971483117,0.09593581643976672,-0.22098080937543632,-0.20056083393891866,1.0606299020250725,-0.07110445207710159,-0.007392389192789291,-0.038444170141839686,0.0,0.0,0.0,0.0,0.0,0.0,0.0,0.0,0.0,0.0
0.1280205249786377,-0.020476974833304393,-0.018585627748597556,0.09827640096421292,-0.22074459826050305,-0.20034228914298716,1.0594470142334451,-0.07281275544219484,-0.007554585533882059,-0.039394042580303275,0.0,0.0,0.0,0.0,0.0,0.0,0.0,0.0,0.0,0.0
0.13378238677978516,-0.020883108456031373,-0.018953156100192176,0.10021792229952839,-0.21783661662405168,-0.19769818378842835,1.0454282354199194,-0.07422901339919367,-0.007688907895767334,-0.040185208105090034,0.0,0.0,0.0,0.0,0.0,0.0,0.0,0.0,0.0,0.0
0.13964009284973145,-0.021213976734448862,-0.019251923049322564,0.10179696264264851,-0.21248732412548388,-0.19283515318022923,1.0196735038827385,-0.07538771275945032,-0.007804281211500964,-0.040837524778126855,0.0,0.0,0.0,0.0,0.0,0.0,0.0,0.0,0.0,0.0
0.14541983604431152,-0.021477620157352155,-0.019489014244383342,0.10305047808221628,-0.20496860861327593,-0.1859981418269574,0.9834847058863877,-0.0763086794454089,-0.007902135933338356,-0.04136364132246696,0.0,0.0,0.0,0.0,0.0,0.0,0.0,0.0,0.0,0.0
0.15110135078430176,-0.021681550413086795,-0.019671190769554807,0.10401512273447223,-0.1955806369763178,-0.17745810314618055,0.9382988482101807,-0.07701059212559885,-0.007973840359396439,-0.04177478062884521,0.0,0.0,0.0,0.0,0.0,0.0,0.0,0.0,0.0,0.0
0.15686726570129395,-0.021832934815893355,-0.019805267233996508,0.10472701694883482,-0.18463873926207836,-0.16750017389773414,0.8856284360829341,-0.07751749537266411,-0.008017015041307097,-0.04208799360131587,0.0,0.0,0.0,0.0,0.0,0.0,0.0,0.0,0.0,0.0
0.16252613067626953,-0.021938841057572475,-0.01989820317131492,0.10522089064210549,-0.1724619369330394,-0.1564144467008194,0.8270098410246884,-0.07785309986744234,-0.008042703082685516,-0.04231666692605364,0.0,0.0,0.0,0.0,0.0,0.0,0.0,0.0,0.0,0.0
0.16829586029052734,-0.022005880626996877,-0.019956816104407298,0.10552954253782662,-0.15936402621756834,-0.1444887744543369,0.7639586688279514,-0.0780445890992969,-0.008060119261154686,-0.042473101721408626,0.0,0.0,0.0,0.0,0.0,0.0,0.0,0.0,0.0,0.0
0.1741323471069336,-0.022040221788413777,-0.019986410053733295,0.105683244283583,-0.14564604861661995,-0.13200100255613828,0.6979316693867356,-0.07812971857367002,-0.008069274005340358,-0.04256903833031127,0.0,0.0,0.0,0.0,0.0,0.0,0.0,0.0,0.0,0.0
0.1798536777496338,-0.02204721902308971,-0.019991511045734732,0.10570946948925941,-0.1315897667579915,-0.11921042686526453,0.6302953179200061,-0.0781351511923315,-0.008071688514233859,-0.042611230189296675,0.0,0.0,0.0,0.0,0.0,0.0,0.0,0.0,0.0,0.0
0.18573379516601562,-0.02203151548348838,-0.01997662705383288,0.10563325270954763,-0.11745217367436157,-0.10635231723040854,0.562301792840364,-0.07807685591204233,-0.008067267354642534,-0.042600117074554286,0.0,0.0,0.0,0.0,0.0,0.0,0.0,0.0,0.0,0.0
0.19138455390930176,-0.02199833246031232,-0.019945512245420502,0.10547642676798236,-0.10346289078206776,-0.09363574917861914,0.4950719228903178,-0.07797443040456646,-0.008049053256913394,-0.042534667717625894,0.0,0.0,0.0,0.0,0.0,0.0,0.0,0.0,0.0,0.0
0.19722390174865723,-0.021952228615328077,-0.01990212986257504,0.10525836681356109,-0.08982428801919913,-0.0812427268711109,0.42958397514810004,-0.07784735852391192,-0.008015337914579422,-0.042425167278647515,0.0,0.0,0.0,0.0,0.0,0.0,0.0,0.0,0.0,0.0
0.203080415725708,-0.021895944334581852,-0.019849623857961945,0.10499653100992959,-0.07670958169838762,-0.0693282601494096,0.3666692407051947,-0.07771698084227012,-0.00796435152782758,-0.042284360062518296,0.0,0.0,0.0,0.0,0.0,0.0,0.0,0.0,0.0,0.0
0.20885419845581055,-0.02183198413197996,-0.019789881411379665,0.1047054190790306,-0.06425977417296402,-0.058019327174764795,0.30701262732492357,-0.07760081701635307,-0.007887763100521486,-0.04211907377583121,0.0,0.0,0.0,0.0,0.0,0.0,0.0,0.0,0.0,0.0
0.21456050872802734,-0.02176223539625818,-0.019725153681232177,0.10439758310806281,-0.052583721930995225,-0.047414351942063296,0.2511557903922389,-0.07751128368996762,-0.007777669109238133,-0.04194458338459345,0.0,0.0,0.0,0.0,0.0,0.0,0.0,0.0,0.0,0.0
0.22029852867126465,-0.021687525464836804,-0.019657424990081284,0.10408413321425561,-0.04175932071607665,-0.037585828034463434,0.19950446331490912,-0.07746781792412505,-0.007618875812450198,-0.04178771851128139,0.0,0.0,0.0,0.0,0.0,0.0,0.0,0.0,0.0,0.0
0.22610735893249512,-0.021607789187661576,-0.019587658990065905,0.10377412965181523,-0.03183392211230792,-0.02858255707740475,0.15233890898682487,-0.077499626233171,-0.007375411610146659,-0.04166393741917581,0.0,0.0,0.0,0.0,0.0,0.0,0.0,0.0,0.0,0.0
0.23185992240905762,-0.021521592870856008,-0.019517038039607724,0.1034759435930771,-0.022824697108776326,-0.02043096987072898,0.10982579242245862,-0.07760877147371908,-0.0070160618964741125,-0.04157486178257225,0.0,0.0,0.0,0.0,0.0,0.0,0.0,0.0,0.0,0.0
0.23759698867797852,-0.021427332091235474,-0.01944733827959026,0.1031968890371271,-0.014720054495907898,-0.01313900827111568,0.07203214200655068,-0.07776134455098782,-0.00653550132537235,-0.041521860866597635,0.0,0.0,0.0,0.0,0.0,0.0,0.0,0.0,0.0,0.0
0.24332785606384277,-0.021323491446793828,-0.019380165402129737,0.1029425523906985,-0.007483830278358479,-0.006701002025623726,0.03893868793621251,-0.07794274928724308,-0.00591700760980055,-0.041496988492657795,0.0,0.0,0.0,0.0,0.0,0.0,0.0,0.0,0.0,0.0
0.24906373023986816,-0.021209266653751273,-0.01931628580797621,0.1027165080191552,-0.0010617807083793834,-0.0010998559253230643,0.01045024723968824,-0.0781673519589973,-0.005113823569643151,-0.04149167780988246,0.0,0.0,0.0,0.0,0.0,0.0,0.0,0.0,0.0,0.0
0.25484347343444824,-0.021085373147831554,-0.019255970118421332,0.10252094171145038,0.004610253674512165,0.0036928946828857384,-0.013594959511118223,-0.07841900559799596,-0.004077171944410098,-0.041503427346866614,0.0,0.0,0.0,0.0,0.0,0.0,0.0,0.0,0.0,0.0
0.2607302665710449,-0.020952107448474724,-0.01920092357425246,0.10235958204509231,0.009599257120090575,0.00771462728603435,-0.03341205435399506,-0.07862389452240882,-0.002792504114938741,-0.041542382164008226,0.0,0.0,0.0,0.0,0.0,0.0,0.0,0.0,0.0,0.0
0.26639461517333984,-0.020810145037000488,-0.019153714357860865,0.10223527423762378,0.013971814880857324,0.011005440409537885,-0.04925320483116741,-0.07869955642769871,-0.0012793757948623783,-0.041630425723154,0.0,0.0,0.0,0.0,0.0,0.0,0.0,0.0,0.0,0.0
0.2721285820007324,-0.020660661578057647,-0.019115996647306042,0.10214996323386634,0.01779178615887855,0.013604232233365305,-0.06139590007843536,-0.07854350446828662,0.00040575532721257403,-0.041794024697395606,0.0,0.0,0.0,0.0,0.0,0.0,0.0,0.0,0.0,0.0
0.2778630256652832,-0.020505107518940316,-0.019088381697250547,0.10210676184779978,0.02111759765971901,0.015550303235881469,-0.07013343524755948,-0.07806332439365264,0.002213737381848226,-0.04204229296534145,0.0,0.0,0.0,0.0,0.0,0.0,0.0,0.0,0.0,0.0
0.2835805416107178,-0.020346905554083666,-0.01907148544651446,0.10210665912463862,0.02399868034695872,0.016885725004020583,-0.07576602339533858,-0.07725909840742307,0.004157032333013622,-0.042332933160636785,0.0,0.0,0.0,0.0,0.0,0.0,0.0,0.0,0.0,0.0
0.28948283195495605,-0.020187450903213264,-0.01906600776498901,0.10215250566442685,0.02647373573480251,0.017654908171627067,-0.07859411180270841,-0.07608549840819004,0.006167773317268758,-0.042663897222081415,0.0,0.0,0.0,0.0,0.0,0.0,0.0,0.0,0.0,0.0
0.29508209228515625,-0.020026775478676845,-0.019072273088766526,0.10225098644532055,0.028575835171208326,0.017903376774770167,-0.07890565062708434,-0.07444965821309715,0.008122021234722502,-0.04307462370311268,0.0,0.0,0.0,0.0,0.0,0.0,0.0,0.0,0.0,0.0
0.30094075202941895,-0.019869570154927265,-0.019089559941524885,0.10240810900131088,0.030332913584395698,0.01767843592499565,-0.07696238440358524,-0.07238042340450401,0.009996752055965317,-0.04352849833858916,0.0,0.0,0.0,0.0,0.0,0.0,0.0,0.0,0.0,0.0
0.306668758392334,-0.019720761810781626,-0.01911470473818305,0.10263058249463783,0.03175909364301971,0.017033210475402405,-0.07299574262434756,-0.06995581069910152,0.011739963175932719,-0.043974189306271075,0.0,0.0,0.0,0.0,0.0,0.0,0.0,0.0,0.0,0.0
0.31229281425476074,-0.019581010487702943,-0.019143816514217135,0.10292306438475478,0.03285616608038355,0.01603168805773593,-0.06720921722910518,-0.0672247456437278,0.013224414890136591,-0.044410295686973286,0.0,0.0,0.0,0.0,0.0,0.0,0.0,0.0,0.0,0.0
0.31800150871276855,-0.019451458271535917,-0.019174136103854184,0.10329122607634766,0.03362467044211495,0.014748201783230105,-0.05978206311418657,-0.06423819900904464,0.014366896967562706,-0.044832595244567966,0.0,0.0,0.0,0.0,0.0,0.0,0.0,0.0,0.0,0.0
0.32372307777404785,-0.019335503281570247,-0.01920308468936185,0.10374385806128691,0.03406529268645476,0.013261818532721835,-0.05086672060396754,-0.06105462732947875,0.015136763395056709,-0.04521916309053789,0.0,0.0,0.0,0.0,0.0,0.0,0.0,0.0,0.0,0.0
0.32941222190856934,-0.01923706400958162,-0.019227137608000253,0.10428044052750846,0.03417270776615584,0.011653037035751946,-0.04059305869494194,-0.05774729388697791,0.015546329315526908,-0.0455503197517634,0.0,0.0,0.0,0.0,0.0,0.0,0.0,0.0,0.0,0.0
0.33510828018188477,-0.019159580336143792,-0.01924219228949194,0.10489920881377877,0.033933771005006406,0.010004255655852237,-0.029088555974489085,-0.054394471307433884,0.015627174239008883,-0.045810323329248503,0.0,0.0,0.0,0.0,0.0,0.0,0.0,0.0,0.0,0.0
0.3408823013305664,-0.019103172441634876,-0.019245681752824203,0.10560595744530993,0.03333353147510919,0.008398194659264563,-0.016480651601576798,-0.05103738989568212,0.01538191356506708,-0.04599735930403731,0.0,0.0,0.0,0.0,0.0,0.0,0.0,0.0,0.0,0.0
0.3465421199798584,-0.01906488693784718,-0.019236832825944662,0.1063996385563025,0.03236722108186973,0.0069112456982329575,-0.0028861334078617556,-0.04767848473913211,0.014807146303594221,-0.04612478835830774,0.0,0.0,0.0,0.0,0.0,0.0,0.0,0.0,0.0,0.0
0.3522951602935791,-0.019043091523193268,-0.019215539804926348,0.10727870260986881,0.031047361801924096,0.005606619569718963,0.01158198306079756,-0.044302898371421096,0.013943959011371439,-0.046193505102077814,0.0,0.0,0.0,0.0,0.0,0.0,0.0,0.0,0.0,0.0
0.3581123352050781,-0.019036243241416256,-0.01918387129594276,0.1082488189679956,0.029400423100909904,0.004529691701411242,0.02681551389477052,-0.040881350570738315,0.012865766950626838,-0.04620264199514314,0.0,0.0,0.0,0.0,0.0,0.0,0.0,0.0,0.0,0.0
0.3637855052947998,-0.01904055111851248,-0.019144382002998662,0.10931634350368223,0.02746428623658157,0.003704449485042582,0.04272875273187479,-0.03735775274145163,0.01161832310664982,-0.046170554305814605,0.0,0.0,0.0,0.0,0.0,0.0,0.0,0.0,0.0,0.0
0.36948323249816895,-0.019053942926865935,-0.01909663106313969,0.11048616326703503,0.025288110902071458,0.0031370535730082015,0.05926378973751238,-0.033674897411457336,0.010244065845005996,-0.046103677134988606,0.0,0.0,0.0,0.0,0.0,0.0,0.0,0.0,0.0,0.0
0.3754844665527344,-0.019075746448190295,-0.01904021299339949,0.11175148037216016,0.022926128122400493,0.002825315682042967,0.0763708097814263,-0.029859839764700177,0.008847379256056543,-0.04599687528619259,0.0,0.0,0.0,0.0,0.0,0.0,0.0,0.0,0.0,0.0
0.38141846656799316,-0.01910425685667046,-0.018975683486569306,0.11310583459347553,0.020431563152590416,0.0027625869657670085,0.09398042397753,-0.02600686576813041,0.007550276505331322,-0.04584676972567801,0.0,0.0,0.0,0.0,0.0,0.0,0.0,0.0,0.0,0.0
0.3872506618499756,-0.019137510435033762,-0.018902603790154116,0.11455446544987553,0.0178566801761123,0.0029377261131349735,0.11200987217424363,-0.022181896027926584,0.006389060110723178,-0.04566070496223484,0.0,0.0,0.0,0.0,0.0,0.0,0.0,0.0,0.0,0.0
0.392972469329834,-0.019174193738854598,-0.018820774421781487,0.11610510983510286,0.015252812824898043,0.0033371152732463716,0.13039660344931797,-0.018431558512747446,0.005343650467692979,-0.045463600401518665,0.0,0.0,0.0,0.0,0.0,0.0,0.0,0.0,0.0,0.0
0.398632287979126,-0.01921526819926167,-0.018729215588661724,0.11776317189959826,0.012665734914173355,0.0039468922062622066,0.14911155791787659,-0.014835768004736453,0.004429938904333798,-0.0452629617684162,0.0,0.0,0.0,0.0,0.0,0.0,0.0,0.0,0.0,0.0
0.40438270568847656,-0.01926186918653251,-0.018626726390102828,0.11952219425855629,0.010129795826419591,0.004755016185317474,0.16813758721612862,-0.011447443381133116,0.0036348060073667686,-0.04507012482054376,0.0,0.0,0.0,0.0,0.0,0.0,0.0,0.0,0.0,0.0
0.4103093147277832,-0.019314594624487563,-0.01851323637897134,0.12137903460703375,0.007667123018648729,0.005751274175880888,0.18744225286055097,-0.008304903565905334,0.0028943704464394365,-0.04490461733991688,0.0,0.0,0.0,0.0,0.0,0.0,0.0,0.0,0.0,0.0
0.4159836769104004,-0.01937681048997562,-0.018387495952708083,0.12334052792994415,0.005287496252018652,0.006926189135100047,0.20698685224084717,-0.005506163179666105,0.00217420193074145,-0.04474592488699783,0.0,0.0,0.0,0.0,0.0,0.0,0.0,0.0,0.0,0.0
0.4216883182525635,-0.019451376186915177,-0.01824804134392876,0.12541296078163097,0.0029856107211467236,0.008272682062643234,0.22675371195732819,-0.003128918892125396,0.0014068132228952502,-0.044566885761785725,0.0,0.0,0.0,0.0,0.0,0.0,0.0,0.0,0.0,0.0
0.42743587493896484,-0.01953869721666858,-0.018095251479393993,0.12760202133111234,0.0007449743387390555,0.009785490525093086,0.24675157169733108,-0.0011749916147272934,0.0004929176631429826,-0.04436755163831541,0.0,0.0,0.0,0.0,0.0,0.0,0.0,0.0,0.0,0.0
0.43317127227783203,-0.01963897070109074,-0.01793147070926219,0.12989791837036646,-0.001453265072549108,0.011454896714119981,0.2669910348584557,0.00041247785687754154,-0.0006032434444912926,-0.04416897854467647,0.0,0.0,0.0,0.0,0.0,0.0,0.0,0.0,0.0,0.0
0.4388551712036133,-0.019752692237087678,-0.01775904581005293,0.13229118682630464,-0.003626580306771953,0.01326142748695278,0.2874493412906789,0.0017009478568543904,-0.001858521085119183,-0.043982674838702635,0.0,0.0,0.0,0.0,0.0,0.0,0.0,0.0,0.0,0.0
0.4445822238922119,-0.01988087017181476,-0.017578339516668644,0.13478412268400494,-0.005791951310479492,0.015178244599326207,0.3080741189905202,0.002725655733480268,-0.0032002758276151763,-0.043782273846592126,0.0,0.0,0.0,0.0,0.0,0.0,0.0,0.0,0.0,0.0
0.450361967086792,-0.02002219760444012,-0.017390370531614956,0.13736506746492075,-0.007964488027908303,0.017176875775734502,0.3288014115301054,0.0035205603077337853,-0.004571276577407692,-0.04354192144221692,0.0,0.0,0.0,0.0,0.0,0.0,0.0,0.0,0.0,0.0
0.45631933212280273,-0.020174454522946136,-0.017197858860963408,0.1400245647967836,-0.010151890976464751,0.01922703054945868,0.3495439441295187,0.004126055797830423,-0.005946879690468756,-0.043263971377976024,0.0,0.0,0.0,0.0,0.0,0.0,0.0,0.0,0.0,0.0
0.46208882331848145,-0.020336951350322166,-0.01700298462692618,0.14276552144032753,-0.012352862011661688,0.02129373338571401,0.3702008217703331,0.004591894617526397,-0.007269097600194105,-0.04296182354844366,0.0,0.0,0.0,0.0,0.0,0.0,0.0,0.0,0.0,0.0
0.46793484687805176,-0.020508167221296225,-0.01680819614611761,0.14558890684975984,-0.014560384982555907,0.02333804606817013,0.3906901829233481,0.004995428213232008,-0.008444419381655851,-0.042660318106779595,0.0,0.0,0.0,0.0,0.0,0.0,0.0,0.0,0.0,0.0
0.4737517833709717,-0.02068600538257954,-0.01661603399255435,0.14849353175385166,-0.016762235416167857,0.02531862195179624,0.41095423992133534,0.005399963941498555,-0.00935457098113351,-0.04238255059502592,0.0,0.0,0.0,0.0,0.0,0.0,0.0,0.0,0.0,0.0
0.47949862480163574,-0.02086847738378751,-0.016426457341996197,0.1514625659061109,-0.01894021077418852,0.027195462150814552,0.4309314923413878,0.00582285753831799,-0.009918637395461798,-0.04211942160528929,0.0,0.0,0.0,0.0,0.0,0.0,0.0,0.0,0.0,0.0
0.4853365421295166,-0.021053554178173745,-0.01623827048733243,0.15448335664394494,-0.021071281551093887,0.02893743502938662,0.4505263906850336,0.006243089964954234,-0.010120832536608268,-0.04186304407469267,0.0,0.0,0.0,0.0,0.0,0.0,0.0,0.0,0.0,0.0
0.4910092353820801,-0.021240775049550825,-0.016050683901650466,0.15756045989942827,-0.023130831992754293,0.030526171883688,0.46962923712005133,0.00660233003691206,-0.009965926958296996,-0.04162111147622532,0.0,0.0,0.0,0.0,0.0,0.0,0.0,0.0,0.0,0.0
0.4967315196990967,-0.021430156264744725,-0.015863611939294784,0.16068297101405082,-0.025097482704287723,0.03195353126784462,0.4881470811338202,0.00683770323086503,-0.009477008637222758,-0.041391471288267846,0.0,0.0,0.0,0.0,0.0,0.0,0.0,0.0,0.0,0.0
0.5025544166564941,-0.021622370754271803,-0.01567600171234382,0.16384103630293687,-0.026956443991189724,0.033218803649918804,0.505988408357294,0.006930515413118664,-0.008680769633161028,-0.041167199415716844,0.0,0.0,0.0,0.0,0.0,0.0,0.0,0.0,0.0,0.0
0.5082767009735107,-0.02181938511001881,-0.015485647064450419,0.16704051910847822,-0.028701949825511094,0.03432988935060288,0.5230674978131388,0.0068955733514088095,-0.00760537005859736,-0.040947396903179306,0.0,0.0,0.0,0.0,0.0,0.0,0.0,0.0,0.0,0.0
0.5140714645385742,-0.0220227252720915,-0.015292214396406257,0.17028572142647438,-0.030338695811454434,0.03530296164182384,0.5393394486403985,0.0067125580633486375,-0.006301640918120441,-0.04073716507307026,0.0,0.0,0.0,0.0,0.0,0.0,0.0,0.0,0.0,0.0
0.5197844505310059,-0.022235051391762593,-0.015095553419722513,0.17358022964466302,-0.03188136558920836,0.0361573838396444,0.5548062124102799,0.006337215157337578,-0.0048421054577950946,-0.04053745571284626,0.0,0.0,0.0,0.0,0.0,0.0,0.0,0.0,0.0,0.0
0.5255529880523682,-0.022436241125005807,-0.014929854428961744,0.176323258496982,-0.033329086472856026,0.03687409429950734,0.568833927358481,0.005410409080002586,-0.003417975152238778,-0.040297370051948736,0.0,0.0,0.0,0.0,0.0,0.0,0.0,0.0,0.0,0.0
0.5314319133758545,-0.02260927205967749,-0.0148242771621151,0.17804737135698423,-0.03462273053756349,0.03733292050623952,0.5791007089954381,0.0037161716954049904,-0.002196071741480534,-0.03998572190365597,0.0,0.0,0.0,0.0,0.0,0.0,0.0,0.0,0.0,0.0
0.5371687412261963,-0.022784823123358066,-0.01473398737638443,0.17959481701873575,-0.0356923262663459,0.03739049511595601,0.5830618944326353,0.001834860974582286,-0.0010751190336975892,-0.039682977628022045,0.0,0.0,0.0,0.0,0.0,0.0,0.0,0.0,0.0,0.0
0.5429534912109375,-0.022987108017578157,-0.014622522231633638,0.1816396983604857,-0.036562797334127484,0.037048402494414386,0.5809159487129997,0.00022447305083911047,6.951114961104937e-05,-0.03944323345129978,0.0,0.0,0.0,0.0,0.0,0.0,0.0,0.0,0.0,0.0
0.5487775802612305,-0.0232146871574426,-0.014494812926896635,0.18411988754227557,-0.03734461441415739,0.03644184791777705,0.5753165461896463,-0.0010985893040030526,0.0012499157216802309,-0.03924357457098749,0.0,0.0,0.0,0.0,0.0,0.0,0.0,0.0,0.0,0.0
0.5544295310974121,-0.02346439290672456,-0.014356736114412192,0.18696558092381504,-0.03814834704277113,0.035707940701667974,0.5689974715839514,-0.0021163896430235595,0.002439780832535871,-0.039081854819999345,0.0,0.0,0.0,0.0,0.0,0.0,0.0,0.0,0.0,0.0
0.5604288578033447,-0.023733118665671897,-0.014214297825351059,0.19011192176094066,-0.039049991142644305,0.03493414842416896,0.5638683740282315,-0.0028012359682029154,0.003615182548530058,-0.03895162724173562,0.0,0.0,0.0,0.0,0.0,0.0,0.0,0.0,0.0,0.0
0.5661015510559082,-0.024020083968607223,-0.014070412272126815,0.19350895818164515,-0.040096969423364784,0.03416833869147553,0.5611555755521114,-0.0031441157156982297,0.004826540919710288,-0.0388016733489854,0.0,0.0,0.0,0.0,0.0,0.0,0.0,0.0,0.0,0.0
0.571814775466919,-0.02432010470660674,-0.013927658578052105,0.19710951246036262,-0.04131311496027138,0.03343268895054344,0.5615526039156371,-0.00313125309932274,0.006141399039287732,-0.03863656174294096,0.0,0.0,0.0,0.0,0.0,0.0,0.0,0.0,0.0,0.0
0.5775454044342041,-0.024626417292691667,-0.01378864054394988,0.20087238748142028,-0.04269390622812519,0.032732455188514045,0.5653402506924923,-0.002722535854486727,0.007596862000256912,-0.038515104344779276,0.0,0.0,0.0,0.0,0.0,0.0,0.0,0.0,0.0,0.0
0.583289623260498,-0.024935096657757734,-0.013655097047456618,0.20474755640330677,-0.04420697865909613,0.03206050166648953,0.572469108491719,-0.0019653764685793,0.009201976737338944,-0.03844728278300143,0.0,0.0,0.0,0.0,0.0,0.0,0.0,0.0,0.0,0.0
0.589012861251831,-0.025244714239407065,-0.013528431101703833,0.2086933182397268,-0.04580569826059186,0.03140219009824896,0.582622724191062,-0.0010186747286554587,0.010963755474596739,-0.038410888690666146,0.0,0.0,0.0,0.0,0.0,0.0,0.0,0.0,0.0,0.0
0.5946848392486572,-0.025555372772948663,-0.01340836595333251,0.21268728715780957,-0.04744341706571802,0.030740764221184533,0.5953078924769161,-3.2063833394899025e-05,0.012869955544205622,-0.038395916760249685,0.0,0.0,0.0,0.0,0.0,0.0,0.0,0.0,0.0,0.0
0.6004126071929932,-0.025867934274137926,-0.013294143886429643,0.21669465192911752,-0.04908151434443639,0.0300627728690268,0.6099390780581093,0.0009291461922683103,0.01488973190535,-0.0383913604701291,0.0,0.0,0.0,0.0,0.0,0.0,0.0,0.0,0.0,0.0
0.6063187122344971,-0.026183331100570258,-0.013185277400559322,0.22068801773111835,-0.05069211273210412,0.029360338713747082,0.6258718742924608,0.0018564268263570928,0.016988594830860557,-0.03839241214224289,0.0,0.0,0.0,0.0,0.0,0.0,0.0,0.0,0.0,0.0
0.6120831966400146,-0.026501098807917473,-0.01308194343979535,0.22466098540461912,-0.05225600547863438,0.028629420130029604,0.6424549605896281,0.002779151590743239,0.01911503123455178,-0.03842701497325696,0.0,0.0,0.0,0.0,0.0,0.0,0.0,0.0,0.0,0.0
0.6178514957427979,-0.026823760686146676,-0.012983562980017219,0.22860814005467325,-0.05376164829438264,0.027868202086569142,0.6591017817122828,0.003700044762473771,0.021245236112604655,-0.038478228332277375,0.0,0.0,0.0,0.0,0.0,0.0,0.0,0.0,0.0,0.0
0.623570442199707,-0.027154231645194437,-0.012889143860555534,0.23252510173821658,-0.055209398733894084,0.02707809031663467,0.6753172552218172,0.004547980347928464,0.023344902809400242,-0.03849539290279735,0.0,0.0,0.0,0.0,0.0,0.0,0.0,0.0,0.0,0.0
0.6293108463287354,-0.027488905468326087,-0.012799914882696313,0.23639627756451403,-0.056606088789297605,0.026262330534359894,0.6906814823850614,0.00525690302039517,0.025322325681266245,-0.038498617272230924,0.0,0.0,0.0,0.0,0.0,0.0,0.0,0.0,0.0,0.0
0.6349911689758301,-0.027824634671424545,-0.012716897620047681,0.24020914341861174,-0.05795006847664476,0.0254213335901963,0.7048237703800626,0.00583214560913038,0.027092173276514815,-0.03852116508921999,0.0,0.0,0.0,0.0,0.0,0.0,0.0,0.0,0.0,0.0
0.6407639980316162,-0.028163227411058377,-0.012640562228185501,0.24396767461557106,-0.05923221364551995,0.02455183973914365,0.7174337132286068,0.006362851595449637,0.028636070829395323,-0.03854891844959203,0.0,0.0,0.0,0.0,0.0,0.0,0.0,0.0,0.0,0.0
0.6464190483093262,-0.02850446839308598,-0.012572698898224861,0.24766332948792374,-0.06044686963154748,0.02364771103085808,0.7282821717089877,0.006945554989568678,0.029982362784676076,-0.03857025165659776,0.0,0.0,0.0,0.0,0.0,0.0,0.0,0.0,0.0,0.0
0.6522810459136963,-0.028848591937645374,-0.012514982281698476,0.25128771908266817,-0.061592791306691506,0.02269845344224014,0.7372008738365936,0.007612409842401809,0.03117469164701558,-0.038573088588935094,0.0,0.0,0.0,0.0,0.0,0.0,0.0,0.0,0.0,0.0
0.6580548286437988,-0.029199341394192276,-0.012467591517446933,0.25484583372207337,-0.06267493597920332,0.02169076794254817,0.744075315477678,0.008337433731942517,0.03228165296481532,-0.038518752405183695,0.0,0.0,0.0,0.0,0.0,0.0,0.0,0.0,0.0,0.0
0.6637766361236572,-0.029556190650419055,-0.012430820099674729,0.25834170456888284,-0.06370666333289615,0.02061272108889535,0.7488653576282442,0.009069452649649923,0.03335055943598446,-0.03839921976812048,0.0,0.0,0.0,0.0,0.0,0.0,0.0,0.0,0.0,0.0
0.6694924831390381,-0.029915308553439778,-0.012404937336692515,0.26177826711598373,-0.06469852586307562,0.019455168695684255,0.7516027933638343,0.009779059162609054,0.03440703523450591,-0.038232855449896595,0.0,0.0,0.0,0.0,0.0,0.0,0.0,0.0,0.0,0.0
0.6751761436462402,-0.030273496486395872,-0.012388814709992552,0.2651459895072809,-0.0656472348507797,0.018212879362568553,0.752359001216334,0.010458960890700517,0.03549329942328478,-0.038020953521413985,0.0,0.0,0.0,0.0,0.0,0.0,0.0,0.0,0.0,0.0
0.6808583736419678,-0.030628562871507104,-0.012380849868838799,0.2684372879266091,-0.06653734536262211,0.016887522220906385,0.7512087810251163,0.011113346500225642,0.03664471845542806,-0.03777488242598868,0.0,0.0,0.0,0.0,0.0,0.0,0.0,0.0,0.0,0.0
0.6865231990814209,-0.03097979952669115,-0.012378814497394156,0.27165806214380217,-0.0673485984594947,0.01548954934849486,0.7482334595608764,0.011729222135168681,0.037903765314045754,-0.03751216820558981,0.0,0.0,0.0,0.0,0.0,0.0,0.0,0.0,0.0,0.0
0.69223952293396,-0.03132553243042893,-0.012380974872282482,0.2748038422344528,-0.06806066378078633,0.01403757930363466,0.7435383458050313,0.012264506783375326,0.03929389775070402,-0.037237860406313765,0.0,0.0,0.0,0.0,0.0,0.0,0.0,0.0,0.0,0.0
0.6980538368225098,-0.031663421618753976,-0.012385752037004105,0.2778712611896736,-0.06865236934560845,0.0125557833834572,0.7372387982227097,0.012650067391447355,0.04080410306843002,-0.03695012155414418,0.0,0.0,0.0,0.0,0.0,0.0,0.0,0.0,0.0,0.0
0.7038073539733887,-0.03199193311479244,-0.012390993173915331,0.28086810480775126,-0.06910068494700486,0.011071988375554218,0.729458978709034,0.01280651764945907,0.042421540447836456,-0.03663991888979859,0.0,0.0,0.0,0.0,0.0,0.0,0.0,0.0,0.0,0.0
0.7095761299133301,-0.03231140573170973,-0.01239604534147368,0.28380052694652785,-0.0693847276917594,0.009615769506288827,0.7203514864874688,0.012699421895600697,0.04414266231029311,-0.03629955812226651,0.0,0.0,0.0,0.0,0.0,0.0,0.0,0.0,0.0,0.0
0.7152221202850342,-0.032623137306849,-0.012401511876832104,0.28667174868447637,-0.06949190598297032,0.008213364602822,0.7100938043160723,0.012336495410044656,0.04596879343686987,-0.03594364003849311,0.0,0.0,0.0,0.0,0.0,0.0,0.0,0.0,0.0,0.0
0.7210206985473633,-0.032926698832988585,-0.01240812618177938,0.28947749759043145,-0.06941883510923677,0.006883165039642577,0.6988627886217942,0.011778131724507554,0.04786708566498529,-0.035597503261332576,0.0,0.0,0.0,0.0,0.0,0.0,0.0,0.0,0.0,0.0
0.7267260551452637,-0.03322087048055489,-0.012417368408121738,0.29221736075637,-0.06916593619402246,0.005634362169478918,0.6868152867771268,0.011087321317986766,0.04975253453256608,-0.03527893829585524,0.0,0.0,0.0,0.0,0.0,0.0,0.0,0.0,0.0,0.0
0.732454776763916,-0.03350536774827546,-0.012431468532444758,0.2948989511522356,-0.06873403799472289,0.004465945157698068,0.6740977924598284,0.010261348595479596,0.05151659375232165,-0.034999573392056185,0.0,0.0,0.0,0.0,0.0,0.0,0.0,0.0,0.0,0.0
0.7381486892700195,-0.03378082309024684,-0.012450979660016844,0.2975185859715471,-0.06812649085683112,0.003368124295291857,0.6608548108483594,0.00933104153153281,0.05309609992374155,-0.03475265797790794,0.0,0.0,0.0,0.0,0.0,0.0,0.0,0.0,0.0,0.0
0.7439470291137695,-0.0340494137019968,-0.012475526470493341,0.30007300736944165,-0.06735337237495168,0.0023282125299587293,0.6472103753253667,0.008371567054141544,0.0544913861644278,-0.034520998858333485,0.0,0.0,0.0,0.0,0.0,0.0,0.0,0.0,0.0,0.0
0.7497129440307617,-0.034313356426430935,-0.012506793041528155,0.3025676498160008,-0.0664344091752222,0.0013331182449975664,0.6332674316040475,0.0074481494056471325,0.05571196769214879,-0.03431055663991282,0.0,0.0,0.0,0.0,0.0,0.0,0.0,0.0,0.0,0.0
0.7553868293762207,-0.034572527244044485,-0.01254583885933026,0.30500607886469366,-0.06539582286431997,0.00036687182256539053,0.6191274268708036,0.006634107284526989,0.05675887375440526,-0.03412869833385504,0.0,0.0,0.0,0.0,0.0,0.0,0.0,0.0,0.0,0.0
0.7611112594604492,-0.03482621719646623,-0.012590834986633175,0.3073903524407694,-0.06426266051607477,-0.0005861432215534474,0.6048921801023915,0.0059502288486020585,0.05765916437818482,-0.03394632113600336,0.0,0.0,0.0,0.0,0.0,0.0,0.0,0.0,0.0,0.0
0.7668576240539551,-0.03507371116159165,-0.012640370721339727,0.3097149746819383,-0.06305457467918599,-0.0015342817095086367,0.5906477625714431,0.005328577327876569,0.058436961568073445,-0.03374154625011766,0.0,0.0,0.0,0.0,0.0,0.0,0.0,0.0,0.0,0.0
0.772587776184082,-0.03531419942380208,-0.012694951185574458,0.31197510018125507,-0.0617856952815751,-0.0024797471667660467,0.5764480288559033,0.004700891924457149,0.05909033914032656,-0.03352341466403274,0.0,0.0,0.0,0.0,0.0,0.0,0.0,0.0,0.0,0.0
0.7782509326934814,-0.03554790145364725,-0.012753999653007449,0.3141725933270948,-0.060466340791821345,-0.0034232801946515374,0.5623203468305351,0.0040637709532593495,0.059656747607363475,-0.03330057451899556,0.0,0.0,0.0,0.0,0.0,0.0,0.0,0.0,0.0,0.0
0.7839324474334717,-0.0357747487281666,-0.012815759635979166,0.31630126455960755,-0.059105406363179874,-0.0043628508668659164,0.548276936084249,0.003433999337473028,0.060209443278995065,-0.03308540197478638,0.0,0.0,0.0,0.0,0.0,0.0,0.0,0.0,0.0,0.0
0.7898261547088623,-0.03599300840043182,-0.01288004707046949,0.3183557930480565,-0.057709107556474445,-0.005292183807018767,0.5343081593202357,0.002775285517473432,0.060792632339992554,-0.032900151458615114,0.0,0.0,0.0,0.0,0.0,0.0,0.0,0.0,0.0,0.0
0.7955095767974854,-0.036200735689393665,-0.01294708154719123,0.32033999664594537,-0.056277132161097074,-0.006204368853546337,0.5203902183819155,0.0020103722992237875,0.06140383188088774,-0.032756038362895604,0.0,0.0,0.0,0.0,0.0,0.0,0.0,0.0,0.0,0.0
0.8012499809265137,-0.03639720574714894,-0.013015682814253412,0.32225823268779796,-0.054802984928889936,-0.00709322696271306,0.5065103250036098,0.001076783791343381,0.06203019858585627,-0.03264590856130534,0.0,0.0,0.0,0.0,0.0,0.0,0.0,0.0,0.0,0.0
0.8069815635681152,-0.036582392340169946,-0.013084045484939627,0.32411391306903137,-0.05327860742813801,-0.007949952473662664,0.49267506984083054,-6.159427714576456e-05,0.06266746131237101,-0.03255083380375348,0.0,0.0,0.0,0.0,0.0,0.0,0.0,0.0,0.0,0.0
0.8127562999725342,-0.03675583010090879,-0.013150616965623602,0.32590473023737904,-0.05169728252654855,-0.008761174020310408,0.47889857778119127,-0.0013859977536033595,0.06329699047047171,-0.03245422391931919,0.0,0.0,0.0,0.0,0.0,0.0,0.0,0.0,0.0,0.0
0.8184516429901123,-0.036918555525340346,-0.013215131949518101,0.32762730218375125,-0.05005498185968221,-0.009511454951061243,0.46518577432945196,-0.0028355020086546744,0.06391284067333651,-0.032346480107018495,0.0,0.0,0.0,0.0,0.0,0.0,0.0,0.0,0.0,0.0
0.824195146560669,-0.03707408909184439,-0.01327856381432136,0.32928304721262625,-0.04835551611303741,-0.010188554366647534,0.4515307078332895,-0.004352958418283683,0.06453383162568666,-0.032214390699317315,0.0,0.0,0.0,0.0,0.0,0.0,0.0,0.0,0.0,0.0
0.8299441337585449,-0.03722371651013278,-0.013342412697491458,0.3308760718672014,-0.046613583765459696,-0.010787819146682764,0.4379312797970919,-0.005885233150545175,0.06512091031596857,-0.032060076615004915,0.0,0.0,0.0,0.0,0.0,0.0,0.0,0.0,0.0,0.0
0.8357086181640625,-0.03736728877229873,-0.013407648642153536,0.33241241769618135,-0.04484848487077182,-0.011312729023033832,0.4244019503214072,-0.007412057567829717,0.06558927276998971,-0.0318819779831485,0.0,0.0,0.0,0.0,0.0,0.0,0.0,0.0,0.0,0.0
0.8414769172668457,-0.03750593448345669,-0.013474053890940868,0.33389273818482595,-0.043078534595025295,-0.01177129133093698,0.41097141628375744,-0.008933250880811146,0.06588572565491177,-0.0316609174664701,0.0,0.0,0.0,0.0,0.0,0.0,0.0,0.0,0.0,0.0
0.8471596240997314,-0.037639496957867474,-0.013542654266759886,0.3353173353949306,-0.04132067067191153,-0.012173119066078954,0.39766894884033166,-0.010383966500497673,0.06597614285983443,-0.03141108107748039,0.0,0.0,0.0,0.0,0.0,0.0,0.0,0.0,0.0,0.0
0.8528523445129395,-0.0377675778565407,-0.013614743450539899,0.3366893134020839,-0.03958865106428564,-0.012530635242140263,0.384519984179495,-0.011652915212700496,0.06586048025368184,-0.03115444844886709,0.0,0.0,0.0,0.0,0.0,0.0,0.0,0.0,0.0,0.0
0.8585031032562256,-0.037890738728165826,-0.013689490606904105,0.33800546076944,-0.03789248585030322,-0.012857855022288192,0.3715451452147941,-0.01268560312966691,0.0655767831326037,-0.030886177729185567,0.0,0.0,0.0,0.0,0.0,0.0,0.0,0.0,0.0,0.0
0.8642086982727051,-0.03800841187947082,-0.01376695230461255,0.3392638902110839,-0.0362395703174906,-0.013166328259922217,0.358751315141711,-0.013502690596513017,0.06512432493648102,-0.03062093267145148,0.0,0.0,0.0,0.0,0.0,0.0,0.0,0.0,0.0,0.0
0.8700037002563477,-0.03812002435267532,-0.013847798526014168,0.3404685077802571,-0.034633596475882614,-0.013465666840635306,0.3461365786526116,-0.01418199193071078,0.06447824216698247,-0.03037520678584388,0.0,0.0,0.0,0.0,0.0,0.0,0.0,0.0,0.0,0.0
0.8756937980651855,-0.038225789083022564,-0.013930771038054231,0.3416193210127243,-0.03307481659694141,-0.013763923823135255,0.33370200757842117,-0.014817945401099871,0.06365016052982952,-0.030129153363996696,0.0,0.0,0.0,0.0,0.0,0.0,0.0,0.0,0.0,0.0
0.8815357685089111,-0.03832487081360354,-0.014013774287299132,0.34271542799845867,-0.03156129739794125,-0.014063202178641244,0.32144781275110224,-0.01546160510561504,0.06268754872244156,-0.029863099989551806,0.0,0.0,0.0,0.0,0.0,0.0,0.0,0.0,0.0,0.0
0.88720703125,-0.03841629856042037,-0.014094604496602289,0.34375776025156557,-0.030087795065246392,-0.014356679514606903,0.3093692052720213,-0.01612990643964701,0.0616700616941646,-0.029567222569179506,0.0,0.0,0.0,0.0,0.0,0.0,0.0,0.0,0.0,0.0
0.892972469329834,-0.03849944929658654,-0.014171508929496071,0.34474638077383535,-0.028645453803499886,-0.014629869092727534,0.29745959253589116,-0.016816910071326553,0.060662397259493135,-0.029238787113237703,0.0,0.0,0.0,0.0,0.0,0.0,0.0,0.0,0.0,0.0
0.8986167907714844,-0.038573182712225394,-0.014243658780356598,0.3456828232319541,-0.0272227692346072,-0.01486437197306907,0.2857128208471118,-0.017517653756312562,0.059680062167948016,-0.02888937357313772,0.0,0.0,0.0,0.0,0.0,0.0,0.0,0.0,0.0,0.0
0.9043741226196289,-0.03863669150291818,-0.014311527018217066,0.3465674416633129,-0.025805979065723093,-0.015043055741663836,0.274124214560801,-0.018264143932325304,0.05871838705476555,-0.028533267260000716,0.0,0.0,0.0,0.0,0.0,0.0,0.0,0.0,0.0,0.0
0.9101340770721436,-0.038689816054322736,-0.014376556408420432,0.3474002433422194,-0.024380700845837194,-0.015155167488728475,0.26268901587545823,-0.0190866278672208,0.05778455371484851,-0.028175590555203616,0.0,0.0,0.0,0.0,0.0,0.0,0.0,0.0,0.0,0.0
0.9158837795257568,-0.038732618035499614,-0.01444036199609464,0.34818364097177773,-0.0229344248095293,-0.015199085605730918,0.2514030967310535,-0.01996970598411951,0.05689092366903631,-0.027813720667246914,0.0,0.0,0.0,0.0,0.0,0.0,0.0,0.0,0.0,0.0
0.9215967655181885,-0.03876546094809069,-0.014503947657421542,0.34891843263355093,-0.021457961386969912,-0.01518131632008255,0.24026608365344249,-0.020845605603870054,0.05603957384454737,-0.027447458956147558,0.0,0.0,0.0,0.0,0.0,0.0,0.0,0.0,0.0,0.0
0.9274582862854004,-0.03878904041433258,-0.01456795668981814,0.3496057570846311,-0.019946266231922857,-0.0151131666507617,0.22928008255074167,-0.02160985494082536,0.055214673221201625,-0.027087695729213004,0.0,0.0,0.0,0.0,0.0,0.0,0.0,0.0,0.0,0.0
0.9331240653991699,-0.03880391690866348,-0.014633912034192415,0.3502495122995179,-0.018398647459252796,-0.015009035598150719,0.2184511622786201,-0.022193965210524594,0.05438633849795235,-0.026749704040468537,0.0,0.0,0.0,0.0,0.0,0.0,0.0,0.0,0.0,0.0
0.9387879371643066,-0.03880960126805645,-0.014703825908144823,0.35085338749125583,-0.016816818952855535,-0.014887571904465017,0.2077946943370387,-0.022616159802152806,0.05351953303195078,-0.026445299784574827,0.0,0.0,0.0,0.0,0.0,0.0,0.0,0.0,0.0,0.0
0.9444584846496582,-0.038805175053330754,-0.014778695024941557,0.3514208645299378,-0.01520143031861142,-0.014771348218900613,0.1973355250300279,-0.022912337581147715,0.05255704398866043,-0.026182976208848158,0.0,0.0,0.0,0.0,0.0,0.0,0.0,0.0,0.0,0.0
0.9503262042999268,-0.03879285262650762,-0.01485679142689011,0.35195342480176584,-0.013553622018391389,-0.014680849517509635,0.18710262850386686,-0.02308611256368412,0.051475341455185245,-0.025945150465846202,0.0,0.0,0.0,18020.0,17619.0,25434.0,21883.0,0.0,0.0,0.0
0.9561991691589355,-0.03877636434533516,-0.014935709226586727,0.352450485538517,-0.01188305267612374,-0.014626516714996199,0.17712068880971885,-0.023121021617666538,0.0503066093385983,-0.025707206349445063,0.0,0.0,0.0,18020.0,17619.0,25434.0,21883.0,0.0,0.0,0.0
0.9618966579437256,-0.038756670165367525,-0.01501482919349899,0.3529121548495807,-0.010209750971658911,-0.014607973072566905,0.167404379047209,-0.02299763846574819,0.04907388267362794,-0.02547534403634737,0.0,0.0,0.0,20042.0,23831.0,22074.0,22885.0,0.0,0.0,0.0
0.9675788879394531,-0.038734016241835464,-0.015093218135743918,0.35333916108214325,-0.008556352945927662,-0.014619049017687267,0.15795996129549195,-0.022745700218454512,0.0477772079826705,-0.025252366615537848,0.0,0.0,0.0,20042.0,23831.0,22074.0,22885.0,0.0,0.0,0.0
0.9733428955078125,-0.03870916512765675,-0.015168770715252852,0.353732524315949,-0.006942999541570698,-0.01464905797821289,0.14878928761767737,-0.02245012408142584,0.04641289814289825,-0.025017000572247556,0.0,0.0,0.0,20038.0,23841.0,22077.0,22874.0,0.0,0.0,0.0
0.9790098667144775,-0.03868201387882438,-0.015240358959629021,0.3540934039442357,-0.005386781256648105,-0.01468206974992149,0.13989212625453618,-0.02220001861667169,0.044980167588053,-0.02475836512984747,0.0,0.0,0.0,20038.0,23841.0,22077.0,22874.0,0.0,0.0,0.0
0.9847438335418701,-0.038651647618940466,-0.015307735325337114,0.3544228491425022,-0.0038997203789973606,-0.0147001517238985,0.13126709194188013,-0.022041340796174393,0.04347839101322966,-0.024480033149075226,0.0,0.0,0.0,20038.0,23841.0,22077.0,22874.0,0.0,0.0,0.0
0.9904220104217529,-0.03861755169783132,-0.015369963734371238,0.35471983432868714,-0.002487198118290473,-0.014686437510987516,0.12290951651207609,-0.021976835387961254,0.041930308613895864,-0.024186378932571626,0.0,0.0,0.0,21974.0,20758.0,22528.0,19974.0,0.0,0.0,0.0
0.9961016178131104,-0.03857989931198431,-0.015426396380665302,0.3549818294835217,-0.0011499079670242885,-0.014625057511003183,0.11480581650412944,-0.021989435397520858,0.040387566740238454,-0.023891345945418342,0.0,0.0,0.0,21040.0,20831.0,22713.0,19017.0,0.0,0.0,0.0
1.0021471977233887,-0.03853878102089964,-0.015477513443313905,0.3552083053564891,0.00011334881667973392,-0.014502418471948018,0.10693215273584955,-0.02204619655753667,0.038887712304701776,-0.023609797153030482,0.0,0.0,0.0,21040.0,20831.0,22713.0,19017.0,0.0,0.0,0.0
1.0078151226043701,-0.038493979309233026,-0.015523946281287452,0.35540102374870847,0.0013050219236707397,-0.01431003941421882,0.09926230962617433,-0.022137195429145974,0.03742997137688964,-0.023345580635277093,0.0,0.0,0.0,19729.0,21153.0,22646.0,17214.0,0.0,0.0,0.0
1.013486623764038,-0.038444926766098925,-0.015565826737952277,0.35556174436329724,0.0024296710060647646,-0.014044753174887934,0.09177604486363117,-0.022292696489093287,0.035992349818202526,-0.02308808727225392,0.0,0.0,0.0,19729.0,21153.0,22646.0,17214.0,0.0,0.0,0.0
1.019136667251587,-0.03839063853976705,-0.01560363075251163,0.35569147904853754,0.0034950243015704585,-0.013707159693388399,0.08446005438571774,-0.02252830928227227,0.03455985487808463,-0.02282654950750075,0.0,0.0,0.0,18372.0,21967.0,22615.0,14586.0,0.0,0.0,0.0
1.024801254272461,-0.03833067674644851,-0.015638894686505273,0.3557907447021958,0.004511883157185596,-0.013302246993362236,0.0773046762016743,-0.022804535750647746,0.033148236673651306,-0.02256913496710187,0.0,0.0,0.0,18364.0,21971.0,22592.0,14620.0,0.0,0.0,0.0
1.0304548740386963,-0.03826549755614727,-0.015673095110863178,0.355858498067827,0.0054915293771056395,-0.012841072712230835,0.07029972323957207,-0.023035799378372843,0.03179241642435731,-0.02232762611315608,0.0,0.0,0.0,18364.0,21971.0,22592.0,14620.0,0.0,0.0,0.0
1.036125659942627,-0.03819590775366549,-0.01570671940540715,0.35589357143285366,0.006442402185122969,-0.012339256294699688,0.06343066816071086,-0.02314556300749352,0.030513532295153807,-0.022104373693364182,0.0,0.0,0.0,14461.0,24992.0,22344.0,3792.0,0.0,0.0,0.0
1.041956901550293,-0.038123258383382694,-0.015739788388117047,0.3558973555455435,0.00736810557787136,-0.01181294738897064,0.05668066074920672,-0.02312067934874534,0.02930537116204681,-0.02189403452876715,0.0,0.0,0.0,14461.0,24992.0,22344.0,3792.0,0.0,0.0,0.0
1.047654151916504,-0.03804897743339821,-0.015772217001654175,0.3558716465980628,0.008266610947580329,-0.011276113843030223,0.05003734802403418,-0.023004493946873313,0.028137425709028326,-0.02168294944752771,0.0,0.0,0.0,14461.0,24992.0,22344.0,3792.0,0.0,0.0,0.0
1.0534851551055908,-0.03797404093975382,-0.01580362101967183,0.35581736223607535,0.009131151140153905,-0.01073958305346013,0.0434950134404447,-0.02284502110705725,0.02698212212335163,-0.021456375892085024,0.0,0.0,0.0,14056.0,25320.0,22651.0,0.0,0.0,0.0,0.0
1.059222936630249,-0.037898961982073535,-0.0158338115863812,0.35573480689239584,0.009952744323567115,-0.010210863407932702,0.037051203535353364,-0.022637683866995828,0.025836155391335755,-0.02121761257684495,0.0,0.0,0.0,14056.0,25320.0,22651.0,0.0,0.0,0.0,0.0
1.0650193691253662,-0.03773378728261574,-0.015881316276927272,0.35422442694577705,0.010822647591143363,-0.00971548844395299,0.029151995406747476,-0.022657141554071843,0.02457019494575258,-0.02105797475542482,0.0,0.0,0.0,14056.0,25320.0,22651.0,0.0,0.0,0.0,0.0
1.0707228183746338,-0.03740858238884788,-0.01596046976672333,0.35019851584830064,0.012089259628143507,-0.009329924704798194,0.014276906464250776,-0.023139300648876433,0.02308781152811187,-0.02104804098168916,0.0,0.0,0.0,10944.0,28722.0,21998.0,4114.0,0.0,0.0,0.0
1.0763773918151855,-0.03705138101977812,-0.016044633601735515,0.34564045925633835,0.014135620579745156,-0.009135762149688434,-0.013604555770159147,-0.0236909046707329,0.021588988030387946,-0.021080078133102788,0.0,0.0,0.0,10944.0,28722.0,21998.0,4114.0,0.0,0.0,0.0
1.0820670127868652,-0.03676442547147681,-0.016111986133640666,0.34215033001184253,0.016931505769853184,-0.009126735301589438,-0.0540679444171664,-0.02402585574576385,0.020200090915260496,-0.021059779857821693,0.0,0.0,0.0,13769.0,25122.0,22891.0,609.0,0.0,0.0,0.0
1.0877790451049805,-0.03653731546901154,-0.016164163106254008,0.3395885528966991,0.02007901175765508,-0.00921762504969811,-0.10090296457094147,-0.02420415781160154,0.01886852680420159,-0.020996760852603956,0.0,0.0,0.0,11192.0,27372.0,22335.0,8793.0,0.0,0.0,0.0
1.0935962200164795,-0.03636134252415234,-0.01620208001811457,0.337820107729551,0.02317107269989514,-0.009318423677703913,-0.14768050689413906,-0.024247149970746715,0.017593165037643955,-0.020894593392938983,0.0,0.0,0.0,11192.0,27372.0,22335.0,8793.0,0.0,0.0,0.0
1.099266529083252,-0.036228789396334816,-0.016226489270227646,0.3367157037033983,0.02592232998478547,-0.009361510181771246,-0.1898507990892618,-0.0241539169404887,0.01640549322621996,-0.020756602946395378,0.0,0.0,0.0,11893.0,25684.0,22805.0,13717.0,0.0,0.0,0.0
1.1049602031707764,-0.03613276178009139,-0.016239874146661913,0.3361567855201715,0.028146229761413167,-0.009299448847559927,-0.22444026658427582,-0.023922326114479104,0.015333630417158982,-0.020602911470029975,0.0,0.0,0.0,11893.0,25684.0,22805.0,13717.0,0.0,0.0,0.0
1.1107103824615479,-0.03606801024286937,-0.01624500288999769,0.3360366699171281,0.029734730581046045,-0.009105992691308105,-0.24976017136587236,-0.02358707781732624,0.014385667245639817,-0.02044486745287324,0.0,0.0,0.0,15635.0,20593.0,23889.0,14801.0,0.0,0.0,0.0
1.1163816452026367,-0.03602904056375197,-0.016244168218195125,0.3362633535480877,0.030640771580268823,-0.008774468036363324,-0.2651336212894345,-0.023191596955647965,0.013525855231694254,-0.0202850974591854,0.0,0.0,0.0,12631.0,22657.0,23733.0,19063.0,0.0,0.0,0.0
1.12209153175354,-0.036009701324159704,-0.016239201162791074,0.33675574724032886,0.030866616526161256,-0.00831277333345414,-0.2706512141941811,-0.022761525921726738,0.012706188590761433,-0.020122094561092006,0.0,0.0,0.0,12631.0,22657.0,23733.0,19063.0,0.0,0.0,0.0
1.1278254985809326,-0.0360058811066111,-0.016231028234976158,0.33744031334263974,0.030453445283781314,-0.0077377478772573255,-0.26696730511115635,-0.022294987429064977,0.011911937970460038,-0.019945955242258208,0.0,0.0,0.0,17640.0,17336.0,24026.0,18620.0,0.0,0.0,0.0
1.1335909366607666,-0.03601509320362695,-0.01621986961234228,0.3382549297011445,0.029467093449921593,-0.00706971727102151,-0.25513170391370965,-0.021753692697165226,0.011158700223027725,-0.019750510073584013,0.0,0.0,0.0,19777.0,16668.0,22496.0,21082.0,0.0,0.0,0.0
1.1392714977264404,-0.03603505269033584,-0.016204878367190437,0.3391462638591457,0.027985594126359606,-0.006327596691215248,-0.23644420246230374,-0.021089668360932946,0.010479543720229204,-0.01952560468664232,0.0,0.0,0.0,19777.0,16668.0,22496.0,21082.0,0.0,0.0,0.0
1.1449832916259766,-0.035969691744687844,-0.016200631278077318,0.3386996132007669,0.02619673213193556,-0.005542701456710844,-0.21385295720457112,-0.020668294573852296,0.009853348692256927,-0.01934698581781943,0.0,0.0,0.0,17430.0,19859.0,21287.0,24552.0,0.0,0.0,0.0
1.1506550312042236,-0.03574328682118676,-0.01621937644984436,0.33581547678701734,0.02455716703054567,-0.00478601399370507,-0.19421989353363225,-0.020820678827300976,0.009223457490950685,-0.019280489976671804,0.0,0.0,0.0,17430.0,19859.0,21287.0,24552.0,0.0,0.0,0.0
1.1565265655517578,-0.035485189770258135,-0.01624061668069207,0.33240796984203336,0.023560271855906482,-0.0041343438924000275,-0.18485854254869044,-0.021060344058011236,0.008587371504556915,-0.01921089346585877,0.0,0.0,0.0,21539.0,16319.0,21487.0,22232.0,0.0,0.0,0.0
1.1622259616851807,-0.03530006898172411,-0.016248348346218945,0.3300200617620704,0.02326802158018456,-0.0035972649159160775,-0.186662502707553,-0.02098802420517449,0.007951208360989483,-0.019053180919271093,0.0,0.0,0.0,24162.0,17109.0,19988.0,21325.0,0.0,0.0,0.0
1.1679425239562988,-0.03517751453125674,-0.01624575644323636,0.3284941903449463,0.023350512129067635,-0.003125230417233847,-0.19473171282721288,-0.020637304164693594,0.007321499084651063,-0.018841057619281915,0.0,0.0,0.0,24162.0,17109.0,19988.0,21325.0,0.0,0.0,0.0
1.1736857891082764,-0.035108353703435416,-0.016235822647198993,0.3276845560101602,0.023452465720118453,-0.0026697472362492793,-0.20380379056355286,-0.020020229389561564,0.0067237239875439555,-0.01861425115684765,0.0,0.0,0.0,24184.0,18539.0,19316.0,20663.0,0.0,0.0,0.0
1.1794102191925049,-0.035084148301111395,-0.01622013801684088,0.3274607336470765,0.02333017412081337,-0.002203520063509045,-0.21028486854589973,-0.01918547505572164,0.006166030764479696,-0.018390912875075473,0.0,0.0,0.0,22307.0,23300.0,18460.0,22771.0,0.0,0.0,0.0
1.185178279876709,-0.035095940294503254,-0.016200531502658128,0.3277078281064702,0.022832253779154203,-0.0017137892498944162,-0.21193256822293127,-0.018216946923209264,0.005623786116477356,-0.018173981015151098,0.0,0.0,0.0,22307.0,23300.0,18460.0,22771.0,0.0,0.0,0.0
1.1908502578735352,-0.03513477557459619,-0.01617973799342265,0.3283241641441459,0.02188494521889455,-0.0011997083736547092,-0.20757037296703063,-0.01719486980556239,0.005052546898219867,-0.017964572541066724,0.0,0.0,0.0,24640.0,21293.0,19876.0,17967.0,0.0,0.0,0.0
1.1964943408966064,-0.03519333965594298,-0.016159547866745817,0.329220154362265,0.020477035811191063,-0.0006712151485204268,-0.19684147037816963,-0.016168698397868848,0.004436301568185705,-0.01776328994954978,0.0,0.0,0.0,22481.0,21201.0,23081.0,17770.0,0.0,0.0,0.0
1.2024755477905273,-0.0352663563963291,-0.016139965944789544,0.3303155268130285,0.01864175007559483,-0.00014359376755440276,-0.1800015989864872,-0.015144077294116414,0.003822175817463333,-0.017562986479935542,0.0,0.0,0.0,22481.0,21201.0,23081.0,17770.0,0.0,0.0,0.0
1.208214521408081,-0.0353499111051363,-0.016119818891095525,0.3315391512944898,0.016439315294997685,0.00037024076845356205,-0.1577471726954847,-0.01409750436304279,0.003292313844967058,-0.017348567206499122,0.0,0.0,0.0,14411.0,24984.0,26069.0,21562.0,0.0,0.0,0.0
1.2139253616333008,-0.035441631859341495,-0.016098710510842405,0.3328322128873053,0.013943259072051403,0.0008632870014879864,-0.1310678126610138,-0.013010526365540762,0.0028919068401139568,-0.017108448591255265,0.0,0.0,0.0,14411.0,24984.0,26069.0,21562.0,0.0,0.0,0.0
1.2196571826934814,-0.03554021922900943,-0.016077125439649346,0.33414781947725414,0.011230011186620058,0.0013320408933189594,-0.10111534540040457,-0.011903339378001459,0.0026214335895469597,-0.016833041409908087,0.0,0.0,0.0,17667.0,21236.0,27185.0,17699.0,0.0,0.0,0.0
1.2254114151000977,-0.035643386940675675,-0.01605529849994492,0.33544927606877517,0.008373636898799535,0.0017733393922015456,-0.06909456504947463,-0.010826296148861079,0.0024746340832768154,-0.016525078689653118,0.0,0.0,0.0,21530.0,21072.0,23278.0,18164.0,0.0,0.0,0.0
1.2314162254333496,-0.03574785824598426,-0.01603445856805715,0.3367089645655007,0.005446762860941573,0.002182838103684481,-0.03618008403780732,-0.009810123423047445,0.002436761179495316,-0.01620455216791226,0.0,0.0,0.0,21530.0,21072.0,23278.0,18164.0,0.0,0.0,0.0
1.2371556758880615,-0.03575160442022461,-0.01603447463843093,0.3366286828111914,0.0026320142721168844,0.0025327525741642184,-0.004873372430620624,-0.008947376210953359,0.002465151775673191,-0.016017369154857686,0.0,0.0,0.0,21530.0,21072.0,23278.0,18164.0,0.0,0.0,0.0
1.2428252696990967,-0.035576959896313966,-0.016070311216408412,0.3341979770597537,0.00038908657678784646,0.0027401516200116958,0.018829056861029293,-0.008285540392688221,0.00254528188644496,-0.01606666326427944,0.0,0.0,0.0,19470.0,23957.0,20650.0,23221.0,0.0,0.0,0.0
1.2485883235931396,-0.03536573069615504,-0.016117362530544133,0.3312142906459741,-0.0007984762143089443,0.0027138567352321457,0.028606940760068866,-0.007663143942859481,0.0027280991014319504,-0.016177793047517937,0.0,0.0,0.0,19470.0,23957.0,20650.0,23221.0,0.0,0.0,0.0
1.2543535232543945,-0.03523142048142474,-0.01615456875606516,0.3291309611165492,-0.0009209734904543024,0.0024473431879182632,0.02418375911156751,-0.0069801079096667145,0.0030291390368224055,-0.01621290596173696,0.0,0.0,0.0,21425.0,25530.0,18871.0,21116.0,0.0,0.0,0.0
1.2601637840270996,-0.035162434829103625,-0.016182704945694366,0.32781723591175954,-0.0003902430983735027,0.0020138206601953163,0.010722698546864098,-0.006279589914937984,0.003390419093215604,-0.016187397814390575,0.0,0.0,0.0,26136.0,19969.0,17320.0,19327.0,0.0,0.0,0.0
1.2660596370697021,-0.035147686970647796,-0.016202836616966608,0.3271523467609617,0.00036160376729000427,0.0014960645924115604,-0.0062538486395471125,-0.005598251545545199,0.003752224032073484,-0.016114569864655568,0.0,0.0,0.0,26136.0,19969.0,17320.0,19327.0,0.0,0.0,0.0
1.2718019485473633,-0.035178847930635145,-0.016215762915715526,0.32702347908673446,0.0010302952556891659,0.0009581218946078708,-0.022783353190944346,-0.0049463458763943985,0.00411284623092096,-0.016004263204745968,0.0,0.0,0.0,20203.0,20944.0,20534.0,24243.0,0.0,0.0,0.0
1.2775664329528809,-0.03524911209752467,-0.016222833318874117,0.3273268745163293,0.0014123138330948948,0.00044728015495605996,-0.03620153977271806,-0.004317034829429722,0.004512483319665224,-0.015868144887263215,0.0,0.0,0.0,20203.0,20944.0,20534.0,24243.0,0.0,0.0,0.0
1.2832310199737549,-0.03535108923118499,-0.01622399048910074,0.32797048597156647,0.0013835519727660012,-3.0076871177274147e-06,-0.044900969640277066,-0.0037129265105752592,0.0049752001933635465,-0.01571410644181081,0.0,0.0,0.0,20203.0,20944.0,20534.0,24243.0,0.0,0.0,0.0
1.2890160083770752,-0.035477961821652006,-0.01621928376668379,0.32887446277305216,0.0008852180244950551,-0.00036871848949259595,-0.04810663550921146,-0.0031720871100603485,0.005492121868920533,-0.015542268405130115,0.0,0.0,0.0,14915.0,22110.0,24983.0,23063.0,0.0,0.0,0.0
1.2946851253509521,-0.03562420108738664,-0.016210305024419887,0.3299698557084418,-8.992139095840266e-05,-0.0006343000937525206,-0.04567521829206578,-0.0027644026649475397,0.006035708103828643,-0.015352364744568388,0.0,0.0,0.0,14915.0,22110.0,24983.0,23063.0,0.0,0.0,0.0
1.3003885746002197,-0.03578512119812857,-0.016198117632305904,0.331196109535179,-0.0015120778499559005,-0.0007942810495833589,-0.037925439172398726,-0.002537864459491168,0.006587750446929958,-0.015142548511461693,0.0,0.0,0.0,13893.0,23251.0,24742.0,22052.0,0.0,0.0,0.0
1.3061487674713135,-0.03595652423399783,-0.016184164304093647,0.33250027047034636,-0.0033263145838833335,-0.0008523426179089391,-0.025499834621743586,-0.0024830559573734336,0.007168172611159054,-0.014913543679999072,0.0,0.0,0.0,16702.0,21686.0,25465.0,15508.0,0.0,0.0,0.0
1.3118207454681396,-0.03613422652580445,-0.016171162482983777,0.3338386041444083,-0.005460805944128224,-0.0008210822210053029,-0.00924962936256727,-0.0025427519916309572,0.007819758651063493,-0.014680549370812323,0.0,0.0,0.0,16702.0,21686.0,25465.0,15508.0,0.0,0.0,0.0
1.317507266998291,-0.03631559076824761,-0.016161517930085044,0.33517561493438996,-0.007834080735729698,-0.0007228592627950898,0.009863705967855189,-0.0026559709682643716,0.008572982757328195,-0.014461266140412567,0.0,0.0,0.0,20594.0,21471.0,22019.0,16001.0,0.0,0.0,0.0
1.3231985569000244,-0.036499096345155635,-0.016156370914279843,0.33648342454302455,-0.01036343199087692,-0.0005866740541129383,0.030848662424925018,-0.0028026377260927165,0.009418483016546821,-0.014262342400661057,0.0,0.0,0.0,20594.0,21471.0,22019.0,16001.0,0.0,0.0,0.0
1.3288264274597168,-0.036681919105765744,-0.016155622974115998,0.33774150407400555,-0.012969741800573434,-0.00044167759379215636,0.052745827334430326,-0.0030000101040345457,0.010309361972896338,-0.014072745006759335,0.0,0.0,0.0,18682.0,25273.0,19081.0,19692.0,0.0,0.0,0.0
1.3344790935516357,-0.03686273933519118,-0.016158271346585838,0.33893394081919603,-0.015578536077894094,-0.0003113435655972734,0.07467261745505512,-0.003270862368025896,0.01121497090889342,-0.013864795659959111,0.0,0.0,0.0,21372.0,23080.0,16393.0,20294.0,0.0,0.0,0.0
1.340144395828247,-0.03704162287136682,-0.016163980311421952,0.3400491503584348,-0.018124137061952702,-0.00021144015674427367,0.09585072211170657,-0.0036061740752471984,0.012120354699059999,-0.013630083098759366,0.0,0.0,0.0,21372.0,23080.0,16393.0,20294.0,0.0,0.0,0.0
1.345841884613037,-0.03721720589677012,-0.016172623727285763,0.34107896363664314,-0.020552522034389075,-0.00015192413950730355,0.11562108771638188,-0.003960487089276123,0.013017268122862264,-0.013382182679868088,0.0,0.0,0.0,25059.0,18285.0,16200.0,18169.0,0.0,0.0,0.0
1.3515141010284424,-0.037389309965436004,-0.016183271505024233,0.34201760922882024,-0.022819879707345093,-0.0001381906288741584,0.13344980199619147,-0.004290455865482334,0.01392774053224254,-0.013125240086753961,0.0,0.0,0.0,21304.0,19979.0,16311.0,22835.0,0.0,0.0,0.0
1.3572196960449219,-0.03755917060164892,-0.01619560833749997,0.34286348005703327,-0.024894158151850337,-0.00017099355598170125,0.1489287216679663,-0.004579366126126453,0.01486795769887909,-0.012865457824767026,0.0,0.0,0.0,21304.0,19979.0,16311.0,22835.0,0.0,0.0,0.0
