T,input_acc,W1,W2,W3,Px,Py,Pz,Vx,Vy,Vz,Roll,Pitch,Yaw,R_rate,P_rate,Y_rate,Wb1,Wb2,Wb3
0,0.0,0.0,0.0,0.0,0.0,0.0,0.0,0.0,0.0,0.0,0.0,0.0,0.0,0.0,0.0,0.0,0.0,0.0,0.0
0.0009584426879882812,9.37373727342455,0.6610035052211033,0.16019595232747877,0.02055859417307596,0.0,0.0,0.0,0.0,0.0,0.0,0.0,0.0,0.0,0.0,0.0,0.0,-0.0,0.0,0.0
0.010488271713256836,9.796197212339724,0.0032366901575628677,0.001474478965842211,0.0001121930357411687,0.0,0.0,9.172414527958578e-19,0.0,0.0,4.784810273764233e-15,0.0,0.0,0.0,5.879536168907264e-13,-6.480346884176434e-13,-5.975097034425758e-17,5.879536168907264e-13,-6.480346884176434e-13,-5.975097034425758e-17
0.016506433486938477,9.777496197715198,0.014181582896857722,0.008445035634097282,0.0005366078071673811,0.0,0.0,1.4356152370091615e-13,0.0,0.0,6.839969871630403e-11,0.0,0.0,0.0,4.3183713769238013e-10,-4.759877043735042e-10,-2.7059200037456015e-13,4.3183713769238013e-10,-4.759877043735042e-10,-2.7059200037456015e-13
0.026024341583251953,9.729927005961475,0.03025280315292356,0.025511235531758554,0.0013168270019012728,0.0,0.0,1.3837813967198605e-12,0.0,0.0,4.1878442596595757e-10,0.0,0.0,0.0,3.4512917406578665e-09,-3.803875722082605e-09,-7.000773815677001e-12,3.4512917406578665e-09,-3.803875722082605e-09,-7.000773815677001e-12
0.03202247619628906,9.642552732397792,0.04446407639054779,0.05623424721884465,0.0023740955920351337,0.0,0.0,1.3445120856930995e-11,0.0,0.0,2.5794868139106384e-09,0.0,0.0,0.0,1.9838691753403908e-08,-2.1861860198195644e-08,-9.353274278891501e-11,1.9838691753403908e-08,-2.1861860198195644e-08,-9.353274278891501e-11
0.04353928565979004,9.510494339965323,0.051586726205253106,0.10274845147463495,0.0036461790144313028,0.0,0.0,3.7863814343772434e-11,0.0,0.0,5.901655078643067e-09,0.0,0.0,0.0,5.67779418535567e-08,-6.255760561573736e-08,-5.075888587966567e-10,5.67779418535567e-08,-6.255760561573736e-08,-5.075888587966567e-10
0.049510955810546875,9.335131772013513,0.048333444249421716,0.16568573602308795,0.005083015238422367,0.0,0.0,1.753798671864512e-10,0.0,0.0,2.0092113436953502e-08,0.0,0.0,0.0,1.726799846131945e-07,-1.9024467556515786e-07,-2.5557847505335397e-09,1.726799846131945e-07,-1.9024467556515786e-07,-2.5557847505335397e-09
0.058692216873168945,9.12219079990985,0.03279737949730292,0.24460102285503363,0.006648023807473269,0.0,0.0,3.3293943536333004e-10,0.0,0.0,3.353103820792073e-08,0.0,0.0,0.0,3.3501376632695327e-07,-3.6913419013938073e-07,-7.464775224571659e-09,3.3501376632695327e-07,-3.6913419013938073e-07,-7.464775224571659e-09
0.06493067741394043,8.88015466205489,0.004202547013896179,0.3381904501731559,0.008316926888015387,0.0,0.0,7.774305596942364e-10,0.0,0.0,6.601491764826046e-08,0.0,0.0,0.0,6.57337260720879e-07,-7.245488403587785e-07,-2.056299108793315e-08,6.57337260720879e-07,-7.245488403587785e-07,-2.056299108793315e-08
0.07087969779968262,8.618967701000592,-0.037164606673089004,0.44441428471066874,0.010070961199995117,0.0,0.0,1.286058732879709e-09,0.0,0.0,9.867806051521988e-08,0.0,0.0,0.0,1.0660667544248348e-06,-1.1758442333607783e-06,-4.437484730725822e-08,1.0660667544248348e-06,-1.1758442333607783e-06,-4.437484730725822e-08
0.07695579528808594,8.349027584156675,-0.09001969425439382,0.5605461809084467,0.01189232209941585,0.0,0.0,1.9902455828819026e-09,0.0,0.0,1.3984599733110143e-07,0.0,0.0,0.0,1.6124152701373088e-06,-1.7802230320590151e-06,-8.555664917179439e-08,1.6124152701373088e-06,-1.7802230320590151e-06,-8.555664917179439e-08
0.0825803279876709,8.080424079980492,-0.15207586001461432,0.6831773655263426,0.013761016229144872,0.0,0.0,2.997605582556496e-09,0.0,0.0,1.9393246662203338e-07,0.0,0.0,0.0,2.3269921766006695e-06,-2.5726419908635054e-06,-1.5188498645786116e-07,2.3269921766006695e-06,-2.5726419908635054e-06,-1.5188498645786116e-07
0.08824801445007324,7.822397436256176,-0.22018965865439197,0.8082637056212942,0.01565215487884279,0.0,0.0,4.258680200711041e-09,0.0,0.0,2.566721010653505e-07,0.0,0.0,0.0,3.1811192907788267e-06,-3.522883946587924e-06,-2.476954180288529e-07,3.1811192907788267e-06,-3.522883946587924e-06,-2.476954180288529e-07
0.09393477439880371,7.582984468538577,-0.2905437623775483,0.931224870082543,0.017533165714078938,0.0,0.0,5.925639585672463e-09,0.0,0.0,3.340966465994543e-07,0.0,0.0,0.0,4.195514238993444e-06,-4.655389299255702e-06,-3.7923348578276044e-07,4.195514238993444e-06,-4.655389299255702e-06,-3.7923348578276044e-07
0.0996243953704834,7.3688037883442785,-0.3587951297957839,1.0472651635539492,0.019360180316669886,0.0,0.0,8.084594278862902e-09,0.0,0.0,4.28089462107209e-07,0.0,0.0,0.0,5.354348341109706e-06,-5.953861847766704e-06,-5.480464920653501e-07,5.354348341109706e-06,-5.953861847766704e-06,-5.480464920653501e-07
0.10534429550170898,7.1849472197569515,-0.42057353971457584,1.1517686481587848,0.021081307553936772,0.0,0.0,1.0831026872252172e-08,0.0,0.0,5.405889983447966e-07,0.0,0.0,0.0,6.628385015925652e-06,-7.386255725208548e-06,-7.506854532062197e-07,6.628385015925652e-06,-7.386255725208548e-06,-7.506854532062197e-07
0.11100530624389648,7.034974635184962,-0.47195215519254413,1.2405856508553177,0.022642664551689222,0.0,0.0,1.429575212228731e-08,0.0,0.0,6.745572752068721e-07,0.0,0.0,0.0,7.9816775794837e-06,-8.911810032905825e-06,-9.785830433285097e-07,7.9816775794837e-06,-8.911810032905825e-06,-9.785830433285097e-07
0.11666345596313477,6.920995150615496,-0.5095629666935411,1.3103473078332186,0.023993029282723247,0.0,0.0,1.8543339586018413e-08,0.0,0.0,8.300950712030567e-07,0.0,0.0,0.0,9.351618354453037e-06,-1.045864890606498e-05,-1.2156952868841196e-06,9.351618354453037e-06,-1.045864890606498e-05,-1.2156952868841196e-06
0.1223146915435791,6.843804991112747,-0.5309361616274735,1.358649932115481,0.025094787219568673,0.0,0.0,2.3738903953727713e-08,0.0,0.0,1.0108112216804451e-06,0.0,0.0,0.0,1.0690574290009549e-05,-1.1970477303809824e-05,-1.4447228876324459e-06,1.0690574290009549e-05,-1.1970477303809824e-05,-1.4447228876324459e-06
0.1280205249786377,6.803035388660432,-0.5348230247393084,1.3842697990131707,0.025928433119273668,0.0,0.0,3.002597834132703e-08,0.0,0.0,1.219055014051377e-06,0.0,0.0,0.0,1.194256492767004e-05,-1.3381203075992833e-05,-1.6465304894181797e-06,1.194256492767004e-05,-1.3381203075992833e-05,-1.6465304894181797e-06
0.13378238677978516,6.797303023413708,-0.5210982893674697,1.38740388502571,0.026488859307323823,0.0,0.0,3.7654123865192523e-08,0.0,0.0,1.4601472174188835e-06,0.0,0.0,0.0,1.306893057994156e-05,-1.4644633442409497e-05,-1.8059344548334592e-06,1.306893057994156e-05,-1.4644633442409497e-05,-1.8059344548334592e-06
0.13964009284973145,6.824396070126933,-0.49054394807681057,1.3694723588501643,0.026790138730609956,0.0,0.0,4.685030648152199e-08,0.0,0.0,1.7379388863452944e-06,0.0,0.0,0.0,1.4028853728384882e-05,-1.571346404185069e-05,-1.9110125769486277e-06,1.4028853728384882e-05,-1.571346404185069e-05,-1.9110125769486277e-06
0.14541983604431152,6.881454322035871,-0.4448465947611334,1.3327941697948626,0.02686461347458727,0.0,0.0,5.795080606786605e-08,0.0,0.0,2.058851506753063e-06,0.0,0.0,0.0,1.4799716757458466e-05,-1.656240114764534e-05,-1.9569271221019097e-06,1.4799716757458466e-05,-1.656240114764534e-05,-1.9569271221019097e-06
0.15110135078430176,6.965142792064496,-0.386455289295877,1.2802735018433122,0.026749904559249745,0.0,0.0,7.086423625286877e-08,0.0,0.0,2.4167708656622654e-06,0.0,0.0,0.0,1.532720190787181e-05,-1.7132262540736284e-05,-1.9394680075310858e-06,1.532720190787181e-05,-1.7132262540736284e-05,-1.9394680075310858e-06
0.15686726570129395,7.071821951718061,-0.3181793677141808,1.215058956490394,0.026486918947434795,0.0,0.0,8.569628805746056e-08,0.0,0.0,2.811798637692232e-06,0.0,0.0,0.0,1.5601294807777544e-05,-1.741465135963916e-05,-1.864675423602789e-06,1.5601294807777544e-05,-1.741465135963916e-05,-1.864675423602789e-06
0.16252613067626953,7.197677133070444,-0.24287182704507138,1.1404185177167727,0.026119759064412405,0.0,0.0,1.0317692846598526e-07,0.0,0.0,3.2598453710873893e-06,0.0,0.0,0.0,1.566376268385012e-05,-1.7459399367873614e-05,-1.7472735983831898e-06,1.566376268385012e-05,-1.7459399367873614e-05,-1.7472735983831898e-06
0.16829586029052734,7.338835497839636,-0.16327490318077276,1.059599339464702,0.025687634178361354,0.0,0.0,1.229844251152632e-07,0.0,0.0,3.7491451170999854e-06,0.0,0.0,0.0,1.5492255190212667e-05,-1.7244488248321947e-05,-1.5952552860013658e-06,1.5492255190212667e-05,-1.7244488248321947e-05,-1.5952552860013658e-06
0.1741323471069336,7.49148959389498,-0.08183890461355613,0.9755179775734812,0.02522341722752265,0.0,0.0,1.4618422620506928e-07,0.0,0.0,4.302174141542647e-06,0.0,0.0,0.0,1.514847794713227e-05,-1.6840739579383058e-05,-1.4253993071148215e-06,1.514847794713227e-05,-1.6840739579383058e-05,-1.4253993071148215e-06
0.1798536777496338,7.651991572847506,-0.0005463775982372115,0.8905954740061129,0.024752958333439753,0.0,0.0,1.7306976249474674e-07,0.0,0.0,4.9210331399205554e-06,0.0,0.0,0.0,1.4647218804572773e-05,-1.6265819901149643e-05,-1.2476315803074466e-06,1.4647218804572773e-05,-1.6265819901149643e-05,-1.2476315803074466e-06
0.18573379516601562,7.816916342584141,0.07892862360639676,0.8068329259794402,0.024292981922983993,0.0,0.0,2.0310687008202018e-07,0.0,0.0,5.58954049721413e-06,0.0,0.0,0.0,1.3986488700301334e-05,-1.5518135021646573e-05,-1.0689522779425432e-06,1.3986488700301334e-05,-1.5518135021646573e-05,-1.0689522779425432e-06
0.19138455390930176,7.9831239548288995,0.15522485071957737,0.7257841378455153,0.02385124540536133,0.0,0.0,2.3815894292977249e-07,0.0,0.0,6.344520319792147e-06,0.0,0.0,0.0,1.3235131867042686e-05,-1.467411384435076e-05,-8.999617892046209e-07,1.3235131867042686e-05,-1.467411384435076e-05,-8.999617892046209e-07
0.19722390174865723,8.147804333284395,0.22740400818100262,0.6485411016316931,0.023430291745770195,0.0,0.0,2.7622202037123764e-07,0.0,0.0,7.138907871703986e-06,0.0,0.0,0.0,1.2366404575732e-05,-1.3703935488197234e-05,-7.420321366900497e-07,1.2366404575732e-05,-1.3703935488197234e-05,-7.420321366900497e-07
0.203080415725708,8.308498149544251,0.2948579748632497,0.5759001151116119,0.023035309922933504,0.0,0.0,3.20486517381482e-07,0.0,0.0,8.034948476129166e-06,0.0,0.0,0.0,1.1459916460309597e-05,-1.269555797357788e-05,-6.019132262680939e-07,1.1459916460309597e-05,-1.269555797357788e-05,-6.019132262680939e-07
0.20885419845581055,8.46310455403644,0.3572796459388288,0.5083624167330426,0.022670545335897935,0.0,0.0,3.7037169082484364e-07,0.0,0.0,9.014765437087833e-06,0.0,0.0,0.0,1.051507526276665e-05,-1.164783601509253e-05,-4.795349706123782e-07,1.051507526276665e-05,-1.164783601509253e-05,-4.795349706123782e-07
0.21456050872802734,8.60988917952821,0.4145613032446765,0.4461257371934098,0.022335673050506214,0.0,0.0,4.2541100593199177e-07,0.0,0.0,1.0064769710922668e-05,0.0,0.0,0.0,9.543449763427299e-06,-1.0573078276133522e-05,-3.747830103951741e-07,9.543449763427299e-06,-1.0573078276133522e-05,-3.747830103951741e-07
0.22029852867126465,8.747471847451864,0.46672845082384196,0.38919155044694176,0.02203384526787932,0.0,0.0,4.860091638088942e-07,0.0,0.0,1.1188917989405659e-05,0.0,0.0,0.0,8.56722232669754e-06,-9.495160938712772e-06,-2.872423715675624e-07,8.56722232669754e-06,-9.495160938712772e-06,-2.872423715675624e-07
0.22610735893249512,8.874805999015999,0.5140144931686276,0.3373262110221812,0.02177363129766097,0.0,0.0,5.536712100016487e-07,0.0,0.0,1.2410457573202588e-05,0.0,0.0,0.0,7.610651386049255e-06,-8.439908258740915e-06,-2.15873307059852e-07,7.610651386049255e-06,-8.439908258740915e-06,-2.15873307059852e-07
0.23185992240905762,8.991154651867545,0.5568545500333784,0.28996987720093054,0.02155755579084632,0.0,0.0,6.295883994326023e-07,0.0,0.0,1.3744895050182747e-05,0.0,0.0,0.0,6.6882721580980364e-06,-7.421853802767619e-06,-1.5890480170789987e-07,6.6882721580980364e-06,-7.421853802767619e-06,-1.5890480170789987e-07
0.23759698867797852,9.09606525515399,0.5954891831016556,0.24651866681129797,0.0213814528605591,0.0,0.0,7.127008909522273e-07,0.0,0.0,1.5168203670047739e-05,0.0,0.0,0.0,5.803530192172459e-06,-6.442166906766202e-06,-1.1420332863401114e-07,5.803530192172459e-06,-6.442166906766202e-06,-1.1420332863401114e-07
0.24332785606384277,9.189347818134422,0.6298477934260707,0.20655418155927727,0.0212418830623183,0.0,0.0,8.04045368023625e-07,0.0,0.0,1.669342378963377e-05,0.0,0.0,0.0,4.968960033645798e-06,-5.510558997702273e-06,-7.991894129778309e-08,4.968960033645798e-06,-5.510558997702273e-06,-7.991894129778309e-08
0.24906373023986816,9.271028028655294,0.660069768305064,0.16948898215427283,0.021131095220364503,0.0,0.0,9.043411902160243e-07,0.0,0.0,1.8327339932097488e-05,0.0,0.0,0.0,4.193351443184867e-06,-4.63078118594622e-06,-5.4221040963432876e-08,4.193351443184867e-06,-4.63078118594622e-06,-5.4221040963432876e-08
0.25484347343444824,9.341313237641103,0.686587252403971,0.13440565764496995,0.02104092732064661,0.0,0.0,1.0144292138610007e-06,0.0,0.0,2.0078116782730282e-05,0.0,0.0,0.0,3.483963118988881e-06,-3.803615476090077e-06,-3.543681274303172e-08,3.483963118988881e-06,-3.803615476090077e-06,-3.543681274303172e-08
0.2607302665710449,9.400594339820461,0.7095352124915052,0.10038134115492625,0.02096654729628675,0.0,0.0,1.135866061398408e-06,0.0,0.0,2.1964265991509666e-05,0.0,0.0,0.0,2.8469527878622604e-06,-3.0284741946232457e-06,-2.209764536877251e-08,2.8469527878622604e-06,-3.0284741946232457e-06,-2.209764536877251e-08
0.26639461517333984,9.449421618270453,0.728471434020301,0.06686777800684875,0.020910528991601392,0.0,0.0,1.2711398750073155e-06,0.0,0.0,2.4016699333955554e-05,0.0,0.0,0.0,2.2872980434327134e-06,-2.303200189558879e-06,-1.2944167048476503e-08,2.2872980434327134e-06,-2.303200189558879e-06,-1.2944167048476503e-08
0.2721285820007324,9.488447836649158,0.7428471495872724,0.03369111852524328,0.020882540041455514,0.0,0.0,1.4130797954406322e-06,0.0,0.0,2.6122003243923534e-05,0.0,0.0,0.0,1.8041818407937647e-06,-1.6195382904646862e-06,-6.900528297760354e-09,1.8041818407937647e-06,-1.6195382904646862e-06,-6.900528297760354e-09
0.2778630256652832,9.51841484987911,0.7518912186569038,0.0010895530618305015,0.02089577400240892,0.0,0.0,1.5692949375720646e-06,0.0,0.0,2.838882348481994e-05,0.0,0.0,0.0,1.4071848533623328e-06,-9.79508469020858e-07,-3.1300585951260742e-09,1.4071848533623328e-06,-9.79508469020858e-07,-3.1300585951260742e-09
0.2835805416107178,9.540095819711055,0.7549126491492046,-0.030720391794556996,0.020955090147145704,0.0,0.0,1.7389268368846676e-06,0.0,0.0,3.079775038684485e-05,0.0,0.0,0.0,1.0994117364446498e-06,-3.790077217538165e-07,-9.106907068115848e-10,1.0994117364446498e-06,-3.790077217538165e-07,-9.106907068115848e-10
0.28948283195495605,9.554219370429303,0.7521200107708346,-0.06207280108394364,0.021038761741527558,0.0,0.0,1.9222281923417843e-06,0.0,0.0,3.3346372542422715e-05,0.0,0.0,0.0,8.84397054667899e-07,1.835698599159046e-07,3.4182253283268654e-10,8.84397054667899e-07,1.835698599159046e-07,3.4182253283268654e-10
0.29508209228515625,9.56153652963799,0.7432761690799864,-0.09245908615989835,0.02114701382628176,0.0,0.0,2.127202571204582e-06,0.0,0.0,3.6137048830861314e-05,0.0,0.0,0.0,7.66135595513539e-07,7.095058030205838e-07,1.102179730396272e-09,7.66135595513539e-07,7.095058030205838e-07,1.102179730396272e-09
0.30094075202941895,9.562783827538032,0.7276731862465744,-0.12078867657625827,0.021302156047976226,0.0,0.0,2.3373185617376094e-06,0.0,0.0,3.893999369495424e-05,0.0,0.0,0.0,7.445052363154204e-07,1.1969829581057533e-06,1.7448660058159683e-09,7.445052363154204e-07,1.1969829581057533e-06,1.7448660058159683e-09
0.306668758392334,9.558542730498848,0.7057985107962049,-0.14692341748643803,0.021486366555119953,0.0,0.0,2.574452883000189e-06,0.0,0.0,4.204089132711641e-05,0.0,0.0,0.0,8.234033162653024e-07,1.6474693529484485e-06,2.562629751572594e-09,8.234033162653024e-07,1.6474693529484485e-06,2.562629751572594e-09
0.31229281425476074,9.549274668447877,0.6786632870510343,-0.17037886338254404,0.021674765625497416,0.0,0.0,2.8243565900797163e-06,0.0,0.0,4.524475533277866e-05,0.0,0.0,0.0,9.995618863407831e-07,2.0535757256838026e-06,3.747087597362733e-09,9.995618863407831e-07,2.0535757256838026e-06,3.747087597362733e-09
0.31800150871276855,9.535415436002587,0.647045249237342,-0.18989627675299714,0.021868617678377465,0.0,0.0,3.0880624168851348e-06,0.0,0.0,4.856183234903164e-05,0.0,0.0,0.0,1.2676102696585804e-06,2.4084217534766806e-06,5.392336239510619e-09,1.2676102696585804e-06,2.4084217534766806e-06,5.392336239510619e-09
0.32372307777404785,9.517335792818873,0.6117673161517063,-0.2046429800314828,0.02206664379868991,0.0,0.0,3.375322627527467e-06,0.0,0.0,5.210835333726366e-05,0.0,0.0,0.0,1.6197849380794652e-06,2.7072329758007942e-06,7.495528996278663e-09,1.6197849380794652e-06,2.7072329758007942e-06,7.495528996278663e-09
0.32941222190856934,9.49531641848593,0.5737342983961878,-0.214293010472056,0.022257533863071003,0.0,0.0,3.6840783249010285e-06,0.0,0.0,5.5850372814150715e-05,0.0,0.0,0.0,2.0436613973340123e-06,2.9409310364164353e-06,9.94775926370336e-09,2.0436613973340123e-06,2.9409310364164353e-06,9.94775926370336e-09
0.33510828018188477,9.469607882851648,0.5339999894994809,-0.21892386598506478,0.022430193538930766,0.0,0.0,4.0128576702729065e-06,0.0,0.0,5.9763380610033105e-05,0.0,0.0,0.0,2.5236452394924545e-06,3.0982894897263108e-06,1.2541372949154132e-08,2.5236452394924545e-06,3.0982894897263108e-06,1.2541372949154132e-08
0.3408823013305664,9.44046215533982,0.4936763474055817,-0.2187754948638351,0.02257516831833144,0.0,0.0,4.3649000006514856e-06,0.0,0.0,6.387928133536408e-05,0.0,0.0,0.0,3.0417685650660377e-06,3.1667687114600698e-06,1.4981192227481384e-08,3.0417685650660377e-06,3.1667687114600698e-06,1.4981192227481384e-08
0.3465421199798584,9.408133623674864,0.45351052837309874,-0.21379923774319465,0.022690603383423952,0.0,0.0,4.746285498048389e-06,0.0,0.0,6.826022699800981e-05,0.0,0.0,0.0,3.578500259535819e-06,3.133794968475331e-06,1.6914542456646046e-08,3.578500259535819e-06,3.133794968475331e-06,1.6914542456646046e-08
0.3522951602935791,9.372897277099774,0.41383597163633756,-0.20393372891482595,0.022782399718656723,0.0,0.0,5.145273719260159e-06,0.0,0.0,7.276473738144126e-05,0.0,0.0,0.0,4.108629676649747e-06,2.985103785284206e-06,1.7961305805667265e-08,4.108629676649747e-06,2.985103785284206e-06,1.7961305805667265e-08
0.3581123352050781,9.335022714734357,0.37475477759386827,-0.18961662180272715,0.02284957472383925,0.0,0.0,5.577587252637809e-06,0.0,0.0,7.756318801936186e-05,0.0,0.0,0.0,4.615520709257915e-06,2.716830594780266e-06,1.783146039326505e-08,4.615520709257915e-06,2.716830594780266e-06,1.783146039326505e-08
0.3637855052947998,9.294737096725541,0.33614166779527543,-0.17166205865122114,0.02288985581403461,0.0,0.0,6.043458173822952e-06,0.0,0.0,8.264710708824474e-05,0.0,0.0,0.0,5.0816842013177125e-06,2.325030073849743e-06,1.6317667016280924e-08,5.0816842013177125e-06,2.325030073849743e-06,1.6317667016280924e-08
0.36948323249816895,9.252220429957097,0.2975249015515042,-0.15066596621345957,0.022910980474616423,0.0,0.0,6.526939695792071e-06,0.0,0.0,8.783642211238697e-05,0.0,0.0,0.0,5.4892184356300536e-06,1.8090368264427733e-06,1.333630521107319e-08,5.4892184356300536e-06,1.8090368264427733e-06,1.333630521107319e-08
0.3754844665527344,9.207590288102244,0.2583675096598661,-0.12722927215160218,0.022914681787055993,0.0,0.0,7.042814778469235e-06,0.0,0.0,9.32846195314492e-05,0.0,0.0,0.0,5.833033320694791e-06,1.17694012346897e-06,8.969022409651437e-09,5.833033320694791e-06,1.17694012346897e-06,8.969022409651437e-09
0.38141846656799316,9.160966214825276,0.2189289971070287,-0.10260702381335245,0.022896048690481806,0.0,0.0,7.620509931933124e-06,0.0,0.0,9.928651445698146e-05,0.0,0.0,0.0,6.114141805373519e-06,4.3780199286255005e-07,3.3987272582784164e-09,6.114141805373519e-06,4.3780199286255005e-07,3.3987272582784164e-09
0.3872506618499756,9.112511725250222,0.18011609356338185,-0.07825227928452441,0.02285122390719161,0.0,0.0,8.227958891419481e-06,0.0,0.0,0.00010549449399889479,0.0,0.0,0.0,6.3164965575561065e-06,-4.0054707057386676e-07,-3.1246391382592174e-09,6.3164965575561065e-06,-4.0054707057386676e-07,-3.1246391382592174e-09
0.392972469329834,9.062414318400092,0.14255892341436663,-0.05475968336129513,0.0227831759841377,0.0,0.0,8.861676840294002e-06,0.0,0.0,0.00011186822764548716,0.0,0.0,0.0,6.434214201622657e-06,-1.3247219229529194e-06,-1.0248767651642825e-08,6.434214201622657e-06,-1.3247219229529194e-06,-1.0248767651642825e-08
0.398632287979126,9.010817740843626,0.10669549865374545,-0.032156013236193055,0.02270444060264786,0.0,0.0,9.520296626291004e-06,0.0,0.0,0.00011839072251338015,0.0,0.0,0.0,6.463472845521365e-06,-2.31925031625243e-06,-1.7565506784636574e-08,6.463472845521365e-06,-2.31925031625243e-06,-1.7565506784636574e-08
0.40438270568847656,8.957793900141201,0.07329035339128968,-0.010801412664651186,0.022618790143776893,0.0,0.0,1.020925910503864e-05,0.0,0.0,0.00012511194021059229,0.0,0.0,0.0,6.402355360995968e-06,-3.370017469527153e-06,-2.4655864717390117e-08,6.402355360995968e-06,-3.370017469527153e-06,-2.4655864717390117e-08
0.4103093147277832,8.903443972459531,0.042852317647390906,0.0092857779081756,0.02253236876446139,0.0,0.0,1.094901078823773e-05,0.0,0.0,0.0001322221710708906,0.0,0.0,0.0,6.251206747009008e-06,-4.468196555780063e-06,-3.112815715909576e-08,6.251206747009008e-06,-4.468196555780063e-06,-3.112815715909576e-08
0.4159836769104004,8.847894685670191,0.015756403947375743,0.028644438598076104,0.022455705951773746,0.0,0.0,1.175510276984378e-05,0.0,0.0,0.0001398546622704151,0.0,0.0,0.0,6.007795661363197e-06,-5.609138346692367e-06,-3.66126130681305e-08,6.007795661363197e-06,-5.609138346692367e-06,-3.66126130681305e-08
0.4216883182525635,8.791239712031528,-0.007023889385394054,0.047574160408385614,0.022379196719909716,0.0,0.0,1.2570125000433368e-05,0.0,0.0,0.00014745912478989997,0.0,0.0,0.0,5.656188197511142e-06,-6.780403809001609e-06,-4.068212560593332e-08,5.656188197511142e-06,-6.780403809001609e-06,-4.068212560593332e-08
0.42743587493896484,8.73352996582912,-0.024700751499946324,0.06677143973041091,0.02229003014147561,0.0,0.0,1.3433843311472557e-05,0.0,0.0,0.00015540407512978493,0.0,0.0,0.0,5.198099449740675e-06,-7.990962006675644e-06,-4.303116218493294e-08,5.198099449740675e-06,-7.990962006675644e-06,-4.303116218493294e-08
0.43317127227783203,8.674738172021405,-0.03724124420969589,0.08730379592075088,0.022188811829743926,0.0,0.0,1.4350784261808429e-05,0.0,0.0,0.00016372019811958282,0.0,0.0,0.0,4.627838030062355e-06,-9.248898747182777e-06,-4.3312094581880686e-08,4.627838030062355e-06,-9.248898747182777e-06,-4.3312094581880686e-08
0.4388551712036133,8.614882457727312,-0.04524328582213854,0.10962685939905961,0.02208619277379545,0.0,0.0,1.5314342954684084e-05,0.0,0.0,0.0001723376881448853,0.0,0.0,0.0,3.94128510001629e-06,-1.0561466787413992e-05,-4.1160992593585626e-08,3.94128510001629e-06,-1.0561466787413992e-05,-4.1160992593585626e-08
0.4445822238922119,8.554058040993043,-0.04946673488639384,0.13360636983206978,0.021987857252658755,0.0,0.0,1.631892427317607e-05,0.0,0.0,0.0001811994650154403,0.0,0.0,0.0,3.1399005046755506e-06,-1.1936072846952973e-05,-3.623489537670662e-08,3.1399005046755506e-06,-1.1936072846952973e-05,-3.623489537670662e-08
0.450361967086792,8.492392496092402,-0.05038329458928011,0.158607924881857,0.02188066781022011,0.0,0.0,1.7383019905630786e-05,0.0,0.0,0.00019045980670498873,0.0,0.0,0.0,2.2301967200768676e-06,-1.3387260122155075e-05,-2.8228423444650252e-08,2.2301967200768676e-06,-1.3387260122155075e-05,-2.8228423444650252e-08
0.45631933212280273,8.43009650974424,-0.048461677963987905,0.18412986861001024,0.0217518501546844,0.0,0.0,1.8511663727129053e-05,0.0,0.0,0.0002001501049368571,0.0,0.0,0.0,1.2192540230091241e-06,-1.4925275593789411e-05,-1.6827917448532378e-08,1.2192540230091241e-06,-1.4925275593789411e-05,-1.6827917448532378e-08
0.46208882331848145,8.367428355261689,-0.0442492345432434,0.20995850937313637,0.021602721210586574,0.0,0.0,1.9734697541195247e-05,0.0,0.0,0.0002105088642553489,0.0,0.0,0.0,1.1736157703315657e-07,-1.6564175764241587e-05,-1.757633813396064e-09,1.1736157703315657e-07,-1.6564175764241587e-05,-1.757633813396064e-09
0.46793484687805176,8.304630020808238,-0.03841745054183816,0.2355155441290534,0.021440105222843862,0.0,0.0,2.0979048922153594e-05,0.0,0.0,0.00022090760624089093,0.0,0.0,0.0,-1.061532180136075e-06,-1.8284165490529913e-05,1.7175624469294522e-08,-1.061532180136075e-06,-1.8284165490529913e-05,1.7175624469294522e-08
0.4737517833709717,8.24192510693882,-0.03194620012648028,0.25984218823422506,0.021276454042720994,0.0,0.0,2.2302191804264397e-05,0.0,0.0,0.0002318204004229435,0.0,0.0,0.0,-2.2978450929968205e-06,-2.0099837723300402e-05,4.000429942022442e-08,-2.2978450929968205e-06,-2.0099837723300402e-05,4.000429942022442e-08
0.47949862480163574,8.179493735291672,-0.02569715017568277,0.28170116723286165,0.021123516326221687,0.0,0.0,2.3683186820749412e-05,0.0,0.0,0.00024306276351428736,0.0,0.0,0.0,-3.5679400467440617e-06,-2.1998797131624775e-05,6.65706943914823e-08,-3.5679400467440617e-06,-2.1998797131624775e-05,6.65706943914823e-08
0.4853365421295166,8.11758852064152,-0.02004955520251058,0.3001862952320808,0.020977290426935052,0.0,0.0,2.5112863421539645e-05,0.0,0.0,0.00025455363872978345,0.0,0.0,0.0,-4.846913794796474e-06,-2.3967200102279747e-05,9.653041316399918e-08,-4.846913794796474e-06,-2.3967200102279747e-05,9.653041316399918e-08
0.4910092353820801,8.056520424659823,-0.01494397124170316,0.3150057002793319,0.020834594219229015,0.0,0.0,2.6633966340681676e-05,0.0,0.0,0.0002666255547406692,0.0,0.0,0.0,-6.116562034323409e-06,-2.6003969803738466e-05,1.2948924713799506e-07,-6.116562034323409e-06,-2.6003969803738466e-05,1.2948924713799506e-07
0.4967315196990967,7.996551452739243,-0.009891653869526455,0.326063527148348,0.02070029109897493,0.0,0.0,2.8180652167326264e-05,0.0,0.0,0.00027874882947280505,0.0,0.0,0.0,-7.355858421957151e-06,-2.8069818819481286e-05,1.6483142550574488e-07,-7.355858421957151e-06,-2.8069818819481286e-05,1.6483142550574488e-07
0.5025544166564941,7.937962684689422,-0.004313496832278445,0.3334584292065099,0.02057428938020262,0.0,0.0,2.981167370197732e-05,0.0,0.0,0.00029137843379483774,0.0,0.0,0.0,-8.557713487813906e-06,-3.0167830067888933e-05,2.0211350350482788e-07,-8.557713487813906e-06,-3.0167830067888933e-05,2.0211350350482788e-07
0.5082767009735107,7.881018413955226,0.00196726892949712,0.3373653335142021,0.02045362790675911,0.0,0.0,3.154677469868617e-05,0.0,0.0,0.00030465101491491443,0.0,0.0,0.0,-9.717377549225479e-06,-3.229115149011334e-05,2.408935396251021e-07,-9.717377549225479e-06,-3.229115149011334e-05,2.408935396251021e-07
0.5140714645385742,7.82589654033341,0.008839536202545914,0.338031634873273,0.020337889399504722,0.0,0.0,3.332839834873143e-05,0.0,0.0,0.0003181159887874047,0.0,0.0,0.0,-1.082782983562626e-05,-3.441113952465503e-05,2.806698388327523e-07,-1.082782983562626e-05,-3.441113952465503e-05,2.806698388327523e-07
0.5197844505310059,7.772678169492899,0.016578079152089104,0.3359749132958677,0.020229695361550653,0.0,0.0,3.521235783134019e-05,0.0,0.0,0.00033218578368041384,0.0,0.0,0.0,-1.1898540203743776e-05,-3.654550611888474e-05,3.2140804213705433e-07,-1.1898540203743776e-05,-3.654550611888474e-05,3.2140804213705433e-07
0.5255529880523682,7.721315876106887,0.025718333372412937,0.33198479026525984,0.02012955335343951,0.0,0.0,3.715079083650973e-05,0.0,0.0,0.0003464929289525658,0.0,0.0,0.0,-1.2930571382309009e-05,-3.8683487608269404e-05,3.629723693881088e-07,-1.2930571382309009e-05,-3.8683487608269404e-05,3.629723693881088e-07
0.5314319133758545,7.675735853274442,0.039548855358922094,0.3276076546966884,0.0200145757680395,0.0,0.0,3.9192287474625864e-05,0.0,0.0,0.0003613865690146624,0.0,0.0,0.0,-1.3876360790599957e-05,-4.079967183067352e-05,4.033625268033551e-07,-1.3876360790599957e-05,-4.079967183067352e-05,4.033625268033551e-07
0.5371687412261963,7.64354573410235,0.059390986854665144,0.32372653916646416,0.019871105761135745,0.0,0.0,4.1362618902577524e-05,0.0,0.0,0.00037703633681059826,0.0,0.0,0.0,-1.46050658570578e-05,-4.2794147017235934e-05,4.371624120961631e-07,-1.46050658570578e-05,-4.2794147017235934e-05,4.371624120961631e-07
0.5429534912109375,7.6277620656955785,0.07888024666821272,0.319085750436171,0.019735357876141283,0.0,0.0,4.357053321620248e-05,0.0,0.0,0.0003927747341830809,0.0,0.0,0.0,-1.5013189234432708e-05,-4.4571277664141636e-05,4.598052532825623e-07,-1.5013189234432708e-05,-4.4571277664141636e-05,4.598052532825623e-07
0.5487775802612305,7.625256920268888,0.09363375173875213,0.31287367798196086,0.01963059541000098,0.0,0.0,4.588968142475059e-05,0.0,0.0,0.00040912003934476894,0.0,0.0,0.0,-1.512645514861024e-05,-4.619288357543636e-05,4.717243561269873e-07,-1.512645514861024e-05,-4.619288357543636e-05,4.717243561269873e-07
0.5544295310974121,7.629662100993897,0.10420234067537416,0.3057589199839848,0.019544359094465457,0.0,0.0,4.83215432460586e-05,0.0,0.0,0.0004260673899830348,0.0,0.0,0.0,-1.503868554592284e-05,-4.7764725095077356e-05,4.765123930604009e-07,-1.503868554592284e-05,-4.7764725095077356e-05,4.765123930604009e-07
0.5604288578033447,7.634422020776527,0.11113477519579928,0.29881538607990066,0.019474648534225404,0.0,0.0,5.0777262349136934e-05,0.0,0.0,0.00044299300896304307,0.0,0.0,0.0,-1.4843552743971028e-05,-4.9373923615954005e-05,4.780744114056496e-07,-1.4843552743971028e-05,-4.9373923615954005e-05,4.780744114056496e-07
0.5661015510559082,7.635038659350924,0.11460548515202593,0.29284659147559006,0.019417706762152466,0.0,0.0,5.349011699380613e-05,0.0,0.0,0.0004614843066527834,0.0,0.0,0.0,-1.4630551645415305e-05,-5.1184282958694334e-05,4.799699141567703e-07,-1.4630551645415305e-05,-5.1184282958694334e-05,4.799699141567703e-07
0.571814775466919,7.628646640631629,0.11476751025485284,0.2877204720017929,0.019347924127254185,0.0,0.0,5.615876926995739e-05,0.0,0.0,0.0004794750402266186,0.0,0.0,0.0,-1.4409266534411707e-05,-5.316099635191494e-05,4.829691942374304e-07,-1.4409266534411707e-05,-5.316099635191494e-05,4.829691942374304e-07
0.5775454044342041,7.613728113944038,0.11157252704712248,0.2829475290846137,0.01926764196471011,0.0,0.0,5.895107859145988e-05,0.0,0.0,0.0004981000511829814,0.0,0.0,0.0,-1.4213660009440195e-05,-5.539627773386983e-05,4.884039655109635e-07,-1.4213660009440195e-05,-5.539627773386983e-05,4.884039655109635e-07
0.583289623260498,7.589755101664277,0.10461073784672868,0.2781658284994558,0.01920613505938611,0.0,0.0,6.186026931101284e-05,0.0,0.0,0.0005173000438986495,0.0,0.0,0.0,-1.4046083096016749e-05,-5.789745667285512e-05,4.963459152972094e-07,-1.4046083096016749e-05,-5.789745667285512e-05,4.963459152972094e-07
0.589012861251831,7.557043700811536,0.09429798726774935,0.273121718250608,0.019168929948129278,0.0,0.0,6.48882938873436e-05,0.0,0.0,0.0005370749418218151,0.0,0.0,0.0,-1.3898922236109865e-05,-6.064927693086963e-05,5.063211452822374e-07,-1.3898922236109865e-05,-6.064927693086963e-05,5.063211452822374e-07
0.5946848392486572,7.516533851378116,0.08213142936547038,0.267474076892809,0.019146255806034542,0.0,0.0,6.80197587890765e-05,0.0,0.0,0.000557313203240713,0.0,0.0,0.0,-1.3755762927110952e-05,-6.361507109316658e-05,5.173996307263087e-07,-1.3755762927110952e-05,-6.361507109316658e-05,5.173996307263087e-07
0.6004126071929932,7.46952997381366,0.0695123223560265,0.26106162644048947,0.019134295385733375,0.0,0.0,7.123897390798113e-05,0.0,0.0,0.0005779060127699288,0.0,0.0,0.0,-1.3598561687655376e-05,-6.675305361354027e-05,5.285098756708938e-07,-1.3598561687655376e-05,-6.675305361354027e-05,5.285098756708938e-07
0.6063187122344971,7.4176254072216485,0.05701898684260742,0.2539444997943234,0.019128068144072388,0.0,0.0,7.460994967767751e-05,0.0,0.0,0.0005992511357689634,0.0,0.0,0.0,-1.3415984432797369e-05,-7.00469249140183e-05,5.387979231449712e-07,-1.3415984432797369e-05,-7.00469249140183e-05,5.387979231449712e-07
0.6120831966400146,7.36253531122916,0.044686336015388906,0.24626434479661413,0.01912525422501989,0.0,0.0,7.821562486409591e-05,0.0,0.0,0.0006218484008305554,0.0,0.0,0.0,-1.3200362707366658e-05,-7.348968034279244e-05,5.475582342837573e-07,-1.3200362707366658e-05,-7.348968034279244e-05,5.475582342837573e-07
0.6178514957427979,7.305893621052466,0.03218022828732578,0.2383660352886177,0.019139584681920594,0.0,0.0,8.186523371454033e-05,0.0,0.0,0.0006444879984149679,0.0,0.0,0.0,-1.2930927669277555e-05,-7.699123474718763e-05,5.535269988656204e-07,-1.2930927669277555e-05,-7.699123474718763e-05,5.535269988656204e-07
0.623570442199707,7.249186777981201,0.01945760383914316,0.23036070523627925,0.019162571664333453,0.0,0.0,8.564957994042182e-05,0.0,0.0,0.000667729106663261,0.0,0.0,0.0,-1.2606289379940162e-05,-8.055639337865657e-05,5.562642307808579e-07,-1.2606289379940162e-05,-8.055639337865657e-05,5.562642307808579e-07
0.6293108463287354,7.193662019999562,0.0072501367737797555,0.22251403864630734,0.01916923772558212,0.0,0.0,8.953557570439689e-05,0.0,0.0,0.0006913592602357367,0.0,0.0,0.0,-1.2222182737504237e-05,-8.416217406300886e-05,5.552891056735469e-07,-1.2222182737504237e-05,-8.416217406300886e-05,5.552891056735469e-07
0.6349911689758301,7.140421649203515,-0.0037722424599506013,0.21566291178527974,0.01916970219104487,0.0,0.0,9.35737612284314e-05,0.0,0.0,0.0007156754397159817,0.0,0.0,0.0,-1.1778241546050002e-05,-8.780954103402895e-05,5.50285830472261e-07,-1.1778241546050002e-05,-8.780954103402895e-05,5.50285830472261e-07
0.6407639980316162,7.090430760899866,-0.013670163971239371,0.2105520961730935,0.019180258005285528,0.0,0.0,9.77087817279213e-05,0.0,0.0,0.000740334792146899,0.0,0.0,0.0,-1.126739843497632e-05,-9.145783049081917e-05,5.405847973559212e-07,-1.126739843497632e-05,-9.145783049081917e-05,5.405847973559212e-07
0.6464190483093262,7.044453473681174,-0.02335085775426396,0.20726565890966642,0.01919331986483348,0.0,0.0,0.00010205642593396513,0.0,0.0,0.0007660136342156641,0.0,0.0,0.0,-1.0686668971822086e-05,-9.51166472305227e-05,5.257095913107176e-07,-1.0686668971822086e-05,-9.51166472305227e-05,5.257095913107176e-07
0.6522810459136963,7.003092017963042,-0.033825456391002304,0.20543309220822445,0.01920269619324242,0.0,0.0,0.000106460841958949,0.0,0.0,0.0007917810752564966,0.0,0.0,0.0,-1.001881376328976e-05,-9.871360770578266e-05,5.045053897696958e-07,-1.001881376328976e-05,-9.871360770578266e-05,5.045053897696958e-07
0.6580548286437988,6.966814634133921,-0.04548510578281237,0.2045501827267221,0.019202367191419135,0.0,0.0,0.00011118212593151238,0.0,0.0,0.0008191403948243593,0.0,0.0,0.0,-9.255474520410438e-06,-0.00010230739254422919,4.762761038713975e-07,-9.255474520410438e-06,-0.00010230739254422919,4.762761038713975e-07
0.6637766361236572,6.935885988555486,-0.058137797808530026,0.20392002447292906,0.019173384514733192,0.0,0.0,0.00011599103476965002,0.0,0.0,0.0008467427496068231,0.0,0.0,0.0,-8.371701389397317e-06,-0.00010582224863576137,4.395301702635093e-07,-8.371701389397317e-06,-0.00010582224863576137,4.395301702635093e-07
0.6694924831390381,6.910398919785597,-0.07133892813788109,0.20308930748227502,0.019112162238501592,0.0,0.0,0.00012091573935405017,0.0,0.0,0.0008747465498074564,0.0,0.0,0.0,-7.352079965243181e-06,-0.00010926741323589615,3.9324832635564194e-07,-7.352079965243181e-06,-0.00010926741323589615,3.9324832635564194e-07
0.6751761436462402,6.890267818571483,-0.08485035486337225,0.20180816377610303,0.01902811180600185,0.0,0.0,0.0001259971635580202,0.0,0.0,0.0009033759135199442,0.0,0.0,0.0,-6.184097642753667e-06,-0.00011265177530403388,3.36528976337724e-07,-6.184097642753667e-06,-0.00011265177530403388,3.36528976337724e-07
0.6808583736419678,6.875355612982483,-0.09861766243720793,0.19959995027259544,0.01892206111120362,0.0,0.0,0.00013121410320296567,0.0,0.0,0.0009325015940508973,0.0,0.0,0.0,-4.860231043342928e-06,-0.00011595248436393975,2.6871126978768143e-07,-4.860231043342928e-06,-0.00011595248436393975,2.6871126978768143e-07
0.6865231990814209,6.865507708037334,-0.1126602837621118,0.19600352951179,0.018799777440159135,0.0,0.0,0.00013659709050985788,0.0,0.0,0.000962283991652476,0.0,0.0,0.0,-3.382801621853857e-06,-0.00011914886434924755,1.8972416725430336e-07,-3.382801621853857e-06,-0.00011914886434924755,1.8972416725430336e-07
0.69223952293396,6.860499033494952,-0.1267757208771506,0.1904767454467724,0.01867016375390158,0.0,0.0,0.0001421339376803986,0.0,0.0,0.0009926446490082959,0.0,0.0,0.0,-1.7656369386695923e-06,-0.00012220504760186292,1.0028476553537328e-07,-1.7656369386695923e-06,-0.00012220504760186292,1.0028476553537328e-07
0.6980538368225098,6.860089259445091,-0.1404182834112689,0.1826610480793986,0.018535926433780728,0.0,0.0,0.00014789741157188608,0.0,0.0,0.0010239676089880527,0.0,0.0,0.0,-3.3218459073884425e-08,-0.00012510677390725826,1.9072443887774784e-09,-3.3218459073884425e-08,-0.00012510677390725826,1.9072443887774784e-09
0.7038073539733887,6.864006843306154,-0.1527320954428927,0.17253609266788772,0.01839628600174965,0.0,0.0,0.00015394543249926555,0.0,0.0,0.0010565437854405427,0.0,0.0,0.0,1.7829050763219584e-06,-0.00012783264824523855,-1.032732607330259e-07,1.7829050763219584e-06,-0.00012783264824523855,-1.032732607330259e-07
0.7095761299133301,6.871907824257757,-0.16273221986770184,0.16010456627063163,0.018246795519879858,0.0,0.0,0.00016011873512970795,0.0,0.0,0.0010894994376843133,0.0,0.0,0.0,3.6434803914055298e-06,-0.0001303039690101861,-2.124636512405487e-07,3.6434803914055298e-06,-0.0001303039690101861,-2.124636512405487e-07
0.7152221202850342,6.883389887705816,-0.1698879421758263,0.14531847144085197,0.018083374568730024,0.0,0.0,0.00016650087003993756,0.0,0.0,0.0011232707230798475,0.0,0.0,0.0,5.507987260889137e-06,-0.000132513231719992,-3.2262874924462575e-07,5.507987260889137e-06,-0.000132513231719992,-3.2262874924462575e-07
0.7210206985473633,6.897986180254924,-0.17413304952134276,0.12815118114186053,0.017912817217911735,0.0,0.0,0.00017293783584304993,0.0,0.0,0.0011570379908622818,0.0,0.0,0.0,7.338625846054941e-06,-0.00013440615358794808,-4.3082254060226683e-07,7.338625846054941e-06,-0.00013440615358794808,-4.3082254060226683e-07
0.7267260551452637,6.915267596005317,-0.17597634473552232,0.10896578791501822,0.017747028551835457,0.0,0.0,0.0001797493511536186,0.0,0.0,0.0011924628675325083,0.0,0.0,0.0,9.11286103754938e-06,-0.0001360542552182717,-5.35013738280703e-07,9.11286103754938e-06,-0.0001360542552182717,-5.35013738280703e-07
0.732454776763916,6.934813664816039,-0.17599941253509038,0.08866282198227204,0.017594210968560647,0.0,0.0,0.00018665398168163106,0.0,0.0,0.001228063946315054,0.0,0.0,0.0,1.0812965283068901e-05,-0.0001373862320274252,-6.335236596649391e-07,1.0812965283068901e-05,-0.0001373862320274252,-6.335236596649391e-07
0.7381486892700195,6.956223591088707,-0.17418414985166183,0.06837364312108848,0.01745983452379048,0.0,0.0,0.00019379340493799212,0.0,0.0,0.001264563945713965,0.0,0.0,0.0,1.244168445499693e-05,-0.00013843581922955085,-7.259652734549442e-07,1.244168445499693e-05,-0.00013843581922955085,-7.259652734549442e-07
0.7439470291137695,6.979142892762728,-0.17088563293138176,0.048797308236157716,0.017340331591537365,0.0,0.0,0.00020109879789003522,0.0,0.0,0.0013015987512902478,0.0,0.0,0.0,1.4007881724655387e-05,-0.00013919199799063703,-8.124105863722921e-07,1.4007881724655387e-05,-0.00013919199799063703,-8.124105863722921e-07
0.7497129440307617,7.003276900808489,-0.16691835227389273,0.030046658141392922,0.017227046709682687,0.0,0.0,0.00020875713817979785,0.0,0.0,0.001340097001268973,0.0,0.0,0.0,1.5529041597272806e-05,-0.00013970974385936377,-8.935648682253885e-07,1.5529041597272806e-05,-0.00013970974385936377,-8.935648682253885e-07
0.7553868293762207,7.028340675760138,-0.16302739706938071,0.012191975393755645,0.01712301930169891,0.0,0.0,0.0002165962975984737,0.0,0.0,0.001379173772427881,0.0,0.0,0.0,1.7019338755523904e-05,-0.00013998044443726748,-9.70096650345859e-07,1.7019338755523904e-05,-0.00013998044443726748,-9.70096650345859e-07
0.7611112594604492,7.054064559139143,-0.1600496896658851,-0.004593565116790645,0.017032100089552395,0.0,0.0,0.00022453250923031687,0.0,0.0,0.0014184084094599275,0.0,0.0,0.0,1.849806438445212e-05,-0.00014002392554858848,-1.0430776253185003e-06,1.849806438445212e-05,-0.00014002392554858848,-1.0430776253185003e-06
0.7668576240539551,7.080200013379337,-0.1582604326777547,-0.02041953316822632,0.01694001076822362,0.0,0.0,0.00023276727863698476,0.0,0.0,0.001458787080365855,0.0,0.0,0.0,1.9987720079482204e-05,-0.00013991366113119433,-1.1137947339498383e-06,1.9987720079482204e-05,-0.00013991366113119433,-1.1137947339498383e-06
0.772587776184082,7.106568029058131,-0.157013192630578,-0.035416470460182335,0.01683599896397808,0.0,0.0,0.00024126840113853544,0.0,0.0,0.0015001320355199272,0.0,0.0,0.0,2.1496568072563665e-05,-0.00013966828045664713,-1.1827071893621481e-06,2.1496568072563665e-05,-0.00013966828045664713,-1.1827071893621481e-06
0.7782509326934814,7.13306540361348,-0.1556484328963915,-0.04949237077068033,0.016724645238129388,0.0,0.0,0.00024998446106528916,0.0,0.0,0.0015421789567857589,0.0,0.0,0.0,2.3026898012777135e-05,-0.00013929577705811962,-1.2499082597529065e-06,2.3026898012777135e-05,-0.00013929577705811962,-1.2499082597529065e-06
0.7839324474334717,7.159617962270302,-0.15414630620121852,-0.06295630610789106,0.016610269882272054,0.0,0.0,0.0002588376450349406,0.0,0.0,0.0015845461884108404,0.0,0.0,0.0,2.4576418174405337e-05,-0.0001387975444343005,-1.3152409497939794e-06,2.4576418174405337e-05,-0.0001387975444343005,-1.3152409497939794e-06
0.7898261547088623,7.186222336767219,-0.15267369423427465,-0.07648804010887898,0.01649897681136285,0.0,0.0,0.00026796295067542055,0.0,0.0,0.0016278705214830597,0.0,0.0,0.0,2.6142995068038646e-05,-0.00013820688489002008,-1.3785588028602419e-06,2.6142995068038646e-05,-0.00013820688489002008,-1.3785588028602419e-06
0.7955095767974854,7.212935977638404,-0.1508533380192091,-0.09051496984217489,0.016401699341941644,0.0,0.0,0.0002776917249997722,0.0,0.0,0.0016736898691539987,0.0,0.0,0.0,2.7726971769368033e-05,-0.00013757582760953916,-1.4397992993836842e-06,2.7726971769368033e-05,-0.00013757582760953916,-1.4397992993836842e-06
0.8012499809265137,7.239787561289396,-0.1478838760704364,-0.10503735669552562,0.016323785654413007,0.0,0.0,0.00028733160002498325,0.0,0.0,0.0017187291552020123,0.0,0.0,0.0,2.9297563804978626e-05,-0.00013679281971959198,-1.4972217736762829e-06,2.9297563804978626e-05,-0.00013679281971959198,-1.4972217736762829e-06
0.8069815635681152,7.266809431398037,-0.14309522592396298,-0.1199739903562136,0.01626137724117538,0.0,0.0,0.00029733042272896875,0.0,0.0,0.0017650808561589424,0.0,0.0,0.0,3.085656350287616e-05,-0.00013591322809022126,-1.5507390102602876e-06,3.085656350287616e-05,-0.00013591322809022126,-1.5507390102602876e-06
0.8127562999725342,7.2939674441256335,-0.13605992010444132,-0.13532296153162268,0.01620472136298193,0.0,0.0,0.0003075818404681676,0.0,0.0,0.0018122333707131966,0.0,0.0,0.0,3.2384371733225006e-05,-0.0001349086240006587,-1.599182483049282e-06,3.2384371733225006e-05,-0.0001349086240006587,-1.599182483049282e-06
0.8184516429901123,7.321232803253239,-0.12687674685774672,-0.15092512232699334,0.01614544407763338,0.0,0.0,0.0003181863205454535,0.0,0.0,0.0018606311693081382,0.0,0.0,0.0,3.386124915221076e-05,-0.00013377990591485056,-1.6414409546707175e-06,3.386124915221076e-05,-0.00013377990591485056,-1.6414409546707175e-06
0.824195146560669,7.348590132560866,-0.11607009754295612,-0.16671935791034356,0.016078846556785296,0.0,0.0,0.0003289212783539555,0.0,0.0,0.001909247683618057,0.0,0.0,0.0,3.5255764815699346e-05,-0.00013249294528037817,-1.675985168227027e-06,3.5255764815699346e-05,-0.00013249294528037817,-1.675985168227027e-06
0.8299441337585449,7.376046590173112,-0.10415397988107877,-0.18283910200904502,0.01599841336643647,0.0,0.0,0.0003400299896166496,0.0,0.0,0.001959173356806988,0.0,0.0,0.0,3.655727431481454e-05,-0.00013108684507218748,-1.7025757847611102e-06,3.655727431481454e-05,-0.00013108684507218748,-1.7025757847611102e-06
0.8357086181640625,7.40359100182841,-0.09164557217573116,-0.19879759481764836,0.015905636888710606,0.0,0.0,0.00035143908258684133,0.0,0.0,0.002010058744445674,0.0,0.0,0.0,3.7756808243038445e-05,-0.0001295741230859437,-1.7212960152467079e-06,3.7756808243038445e-05,-0.0001295741230859437,-1.7212960152467079e-06
0.8414769172668457,7.431180031866248,-0.07876415985007812,-0.21364000096055485,0.01580042235751123,0.0,0.0,0.0003631753136069414,0.0,0.0,0.0020620064671903735,0.0,0.0,0.0,3.885979755304766e-05,-0.0001279851366394786,-1.73302606299358e-06,3.885979755304766e-05,-0.0001279851366394786,-1.73302606299358e-06
0.8471596240997314,7.458755680080532,-0.06554008620130586,-0.22672766265210356,0.015673758429594713,0.0,0.0,0.00037522175596189163,0.0,0.0,0.002114924912487195,0.0,0.0,0.0,3.9875289777781706e-05,-0.00012634708038597876,-1.7388407745390773e-06,3.9875289777781706e-05,-0.00012634708038597876,-1.7388407745390773e-06
0.8528523445129395,7.4862506060154494,-0.052686267297485406,-0.23762202711521713,0.015533613141461433,0.0,0.0,0.00038739057379206127,0.0,0.0,0.0021679828171377847,0.0,0.0,0.0,4.081193926697872e-05,-0.0001246680439625986,-1.739740484895214e-06,4.081193926697872e-05,-0.0001246680439625986,-1.739740484895214e-06
0.8585031032562256,7.513601632714531,-0.041403782121858905,-0.24623980621488184,0.015391979046805414,0.0,0.0,0.00039988578269755504,0.0,0.0,0.002222063098065905,0.0,0.0,0.0,4.169561846713107e-05,-0.00012298976360444595,-1.7373564282786666e-06,4.169561846713107e-05,-0.00012298976360444595,-1.7373564282786666e-06
0.8642086982727051,7.540769920046738,-0.03231128016369803,-0.2529009507123728,0.015246870410906978,0.0,0.0,0.0004125959807072751,0.0,0.0,0.002276672716777985,0.0,0.0,0.0,4.254159394862597e-05,-0.00012131940639601131,-1.7327380045424246e-06,4.254159394862597e-05,-0.00012131940639601131,-1.7327380045424246e-06
0.8700037002563477,7.567761635296128,-0.025271028100268385,-0.25757448421088724,0.015105753156388348,0.0,0.0,0.00042574530150674107,0.0,0.0,0.0023327589332188606,0.0,0.0,0.0,4.3373237705826674e-05,-0.00011968705868948598,-1.7271150213747993e-06,4.3373237705826674e-05,-0.00011968705868948598,-1.7271150213747993e-06
0.8756937980651855,7.594580518728686,-0.019563615907736392,-0.26001571464107254,0.01497673477544852,0.0,0.0,0.0004394310672695437,0.0,0.0,0.002390706623851116,0.0,0.0,0.0,4.420837889130027e-05,-0.00011810418793582437,-1.721340412423928e-06,4.420837889130027e-05,-0.00011810418793582437,-1.721340412423928e-06
0.8815357685089111,7.621213250578185,-0.014270619407215293,-0.2603537754302437,0.014849344310446213,0.0,0.0,0.0004531986085733302,0.0,0.0,0.002448577560690057,0.0,0.0,0.0,4.5043655321733045e-05,-0.00011653673587067316,-1.7153441867469822e-06,4.5043655321733045e-05,-0.00011653673587067316,-1.7153441867469822e-06
0.88720703125,7.6476703605229845,-0.008877614759762774,-0.2590867375876888,0.014713158571760147,0.0,0.0,0.00046767913130804623,0.0,0.0,0.0025090044489536846,0.0,0.0,0.0,4.5896381682753676e-05,-0.00011502768011052684,-1.7097532920670836e-06,4.5896381682753676e-05,-0.00011502768011052684,-1.7097532920670836e-06
0.892972469329834,7.6739204315699805,-0.0031770388610326177,-0.25704465075116545,0.014562605789674372,0.0,0.0,0.00048207703782107545,0.0,0.0,0.002568654489511005,0.0,0.0,0.0,4.6729681243044356e-05,-0.00011351117813076593,-1.7030862866071986e-06,4.6729681243044356e-05,-0.00011351117813076593,-1.7030862866071986e-06
0.8986167907714844,7.699980412108142,0.0028446667456012106,-0.25492282351345913,0.014395872720573554,0.0,0.0,0.000497063679972515,0.0,0.0,0.002630302488497516,0.0,0.0,0.0,4.7536178564894066e-05,-0.0001120193459856736,-1.694936675891453e-06,4.7536178564894066e-05,-0.0001120193459856736,-1.694936675891453e-06
0.9043741226196289,7.7258370340198335,0.009223849188317246,-0.25294045236794144,0.014218650604222192,0.0,0.0,0.0005120826153583922,0.0,0.0,0.002691647853002706,0.0,0.0,0.0,4.826985542117568e-05,-0.00011049660624246504,-1.6834899672422707e-06,4.826985542117568e-05,-0.00011049660624246504,-1.6834899672422707e-06
0.9101340770721436,7.751511937088425,0.016354676253737876,-0.25113104824391924,0.014037889603125804,0.0,0.0,0.0005277618943521445,0.0,0.0,0.0027552417265809446,0.0,0.0,0.0,4.892015660852539e-05,-0.00010895880199357865,-1.66821362717077e-06,4.892015660852539e-05,-0.00010895880199357865,-1.66821362717077e-06
0.9158837795257568,7.777002277248135,0.024578667523996067,-0.2496427116622001,0.013855851364906663,0.0,0.0,0.0005438176868560829,0.0,0.0,0.002819904385554252,0.0,0.0,0.0,4.946334403981022e-05,-0.00010736443715173247,-1.6481595156545758e-06,4.946334403981022e-05,-0.00010736443715173247,-1.6481595156545758e-06
0.9215967655181885,7.802301188226607,0.03373784122296686,-0.24865680391069087,0.01367113814899617,0.0,0.0,0.0005602193670268787,0.0,0.0,0.002885497989647132,0.0,0.0,0.0,4.989711996931062e-05,-0.00010569155276591059,-1.6231940121617012e-06,4.989711996931062e-05,-0.00010569155276591059,-1.6231940121617012e-06
0.9274582862854004,7.827403433112971,0.043114678370992233,-0.24822715931534564,0.013483959220460416,0.0,0.0,0.0005768928318786398,0.0,0.0,0.002951716465165951,0.0,0.0,0.0,5.023010374397116e-05,-0.00010392189636684464,-1.5936259967467164e-06,5.023010374397116e-05,-0.00010392189636684464,-1.5936259967467164e-06
0.9331240653991699,7.8523202376524495,0.051601631385797125,-0.2482045571165015,0.013300460507365431,0.0,0.0,0.0005943961492229146,0.0,0.0,0.0030207468748802823,0.0,0.0,0.0,5.049319340554336e-05,-0.00010207485115657502,-1.5605390232815143e-06,5.049319340554336e-05,-0.00010207485115657502,-1.5605390232815143e-06
0.9387879371643066,7.877008041648826,0.05843074655908905,-0.24828317730960361,0.013128915271765086,0.0,0.0,0.000611702563342186,0.0,0.0,0.003088530204741018,0.0,0.0,0.0,5.0687016716982546e-05,-0.00010010045270840982,-1.5241260678371222e-06,5.0687016716982546e-05,-0.00010010045270840982,-1.5241260678371222e-06
0.9444584846496582,7.901438805937214,0.06368162787555195,-0.24811221312590148,0.012975392960545055,0.0,0.0,0.000629389967198831,0.0,0.0,0.003157338738460153,0.0,0.0,0.0,5.085862471646231e-05,-9.802880189619946e-05,-1.4859663640055616e-06,5.085862471646231e-05,-9.802880189619946e-05,-1.4859663640055616e-06
0.9503262042999268,7.92555072842793,0.06760246974707282,-0.24712717726827077,0.012844408804421595,0.0,0.0,0.0006474916248598537,0.0,0.0,0.0032272863409462888,0.0,0.0,0.0,5.104722321440084e-05,-9.586046129589754e-05,-1.4472277103646774e-06,5.104722321440084e-05,-9.586046129589754e-05,-1.4472277103646774e-06
0.9561991691589355,7.949288725986496,0.07015088374764708,-0.2450720331594898,0.01272736177743203,0.0,0.0,0.000666643523040663,0.0,0.0,0.0033007893423247768,0.0,0.0,0.0,5.129676992192592e-05,-9.362506852286079e-05,-1.4091670843620342e-06,5.129676992192592e-05,-9.362506852286079e-05,-1.4091670843620342e-06
0.9618966579437256,7.972577971211885,0.071130278253307,-0.24219423105144358,0.012611776537772516,0.0,0.0,0.0006862477950322017,0.0,0.0,0.003375511039468434,0.0,0.0,0.0,5.160766141681474e-05,-9.131932781293826e-05,-1.371977781796215e-06,5.160766141681474e-05,-9.131932781293826e-05,-1.371977781796215e-06
0.9675788879394531,7.9953677609580565,0.07034541111073353,-0.23862219100713386,0.012500709293499977,0.0,0.0,0.0007056888776061076,0.0,0.0,0.0034491111012962317,0.0,0.0,0.0,5.1966992338272715e-05,-8.895664558351161e-05,-1.3356841300007882e-06,5.1966992338272715e-05,-8.895664558351161e-05,-1.3356841300007882e-06
0.9733428955078125,8.017653138176318,0.06812685342167524,-0.23425400010429068,0.012395458492579167,0.0,0.0,0.0007254986648660146,0.0,0.0,0.0035236120980913347,0.0,0.0,0.0,5.2374756222577705e-05,-8.659506541666428e-05,-1.3007208613012789e-06,5.2374756222577705e-05,-8.659506541666428e-05,-1.3007208613012789e-06
0.9790098667144775,8.039430401588715,0.06539330092444809,-0.22896256906434032,0.012285019401804707,0.0,0.0,0.000746029298997333,0.0,0.0,0.0036003140910718617,0.0,0.0,0.0,5.2816541701482055e-05,-8.428044983663325e-05,-1.2671429531535908e-06,5.2816541701482055e-05,-8.428044983663325e-05,-1.2671429531535908e-06
0.9847438335418701,8.060676016014089,0.06311919250861114,-0.2226711238296185,0.012163547975324117,0.0,0.0,0.000766648489460158,0.0,0.0,0.003676841360733172,0.0,0.0,0.0,5.3251982768929423e-05,-8.202237263465453e-05,-1.2343704757742747e-06,5.3251982768929423e-05,-8.202237263465453e-05,-1.2343704757742747e-06
0.9904220104217529,8.081399094369543,0.06184717008917571,-0.215331320249625,0.012032676686371533,0.0,0.0,0.0007879560787895672,0.0,0.0,0.0037554084297816443,0.0,0.0,0.0,5.366160504879959e-05,-7.98579088917216e-05,-1.2022770219476796e-06,5.366160504879959e-05,-7.98579088917216e-05,-1.2022770219476796e-06
0.9961016178131104,8.101598329875298,0.061682954530265885,-0.2071521921009565,0.01189445135132163,0.0,0.0,0.0008095035226709795,0.0,0.0,0.0038343443741634454,0.0,0.0,0.0,5.4006435588363086e-05,-7.778383265757638e-05,-1.170220256109277e-06,5.4006435588363086e-05,-7.778383265757638e-05,-1.170220256109277e-06
1.0021471977233887,8.121311648583205,0.06252221662567511,-0.19865060531454393,0.011755510427101865,0.0,0.0,0.0008315079994713307,0.0,0.0,0.0039144365092225585,0.0,0.0,0.0,5.4261087385293853e-05,-7.58086746948692e-05,-1.1378428666766573e-06,5.4261087385293853e-05,-7.58086746948692e-05,-1.1378428666766573e-06
1.0078151226043701,8.140625890599305,0.06408793606762238,-0.19021127274586466,0.011623132322975705,0.0,0.0,0.0008554338859976327,0.0,0.0,0.004000947166368733,0.0,0.0,0.0,5.442569004753345e-05,-7.396416835527052e-05,-1.1053030319708343e-06,5.442569004753345e-05,-7.396416835527052e-05,-1.1053030319708343e-06
1.013486623764038,8.15953355882203,0.06631476817360078,-0.18184146979632276,0.011499306089864983,0.0,0.0,0.000878343624688323,0.0,0.0,0.004083240053329013,0.0,0.0,0.0,5.4435877207518155e-05,-7.217925394600526e-05,-1.0714436177924164e-06,5.4435877207518155e-05,-7.217925394600526e-05,-1.0714436177924164e-06
1.019136667251587,8.178110848203978,0.06952517286579808,-0.173352034491475,0.011378789858070597,0.0,0.0,0.0009017379676216879,0.0,0.0,0.004166742203434688,0.0,0.0,0.0,5.4309719796092946e-05,-7.048151428249038e-05,-1.0367412702077661e-06,5.4309719796092946e-05,-7.048151428249038e-05,-1.0367412702077661e-06
1.024801254272461,8.196383223957985,0.07387368773807036,-0.16463731769894285,0.011256258502300125,0.0,0.0,0.000925517972887662,0.0,0.0,0.004251087441396613,0.0,0.0,0.0,5.404559721105097e-05,-6.885491932246394e-05,-1.001155671005123e-06,5.404559721105097e-05,-6.885491932246394e-05,-1.001155671005123e-06
1.0304548740386963,8.214373748438339,0.07892940648877432,-0.15590729403035328,0.011135765863191883,0.0,0.0,0.0009498408899125286,0.0,0.0,0.00433681892605195,0.0,0.0,0.0,5.3655555582591184e-05,-6.728401718551159e-05,-9.648184244596966e-07,5.3655555582591184e-05,-6.728401718551159e-05,-9.648184244596966e-07
1.036125659942627,8.23211019814746,0.08377068808100036,-0.14755666811644025,0.011023122347612062,0.0,0.0,0.0009746042592344892,0.0,0.0,0.004423559466852518,0.0,0.0,0.0,5.315834479869067e-05,-6.574887388545428e-05,-9.279575568151464e-07,5.315834479869067e-05,-6.574887388545428e-05,-9.279575568151464e-07
1.041956901550293,8.249640794565188,0.08755539367003419,-0.13982703483077305,0.010919470579956493,0.0,0.0,0.0009999388103073337,0.0,0.0,0.004511750437649704,0.0,0.0,0.0,5.2582378282980954e-05,-6.423897688742041e-05,-8.910023553418253e-07,5.2582378282980954e-05,-6.423897688742041e-05,-8.910023553418253e-07
1.047654151916504,8.267020741574663,0.09008049194558676,-0.13266690961883457,0.010822136191268705,0.0,0.0,0.0010265153459235144,0.0,0.0,0.004603684772546961,0.0,0.0,0.0,5.196315495525993e-05,-6.276100305347391e-05,-8.545728551227026e-07,5.196315495525993e-05,-6.276100305347391e-05,-8.545728551227026e-07
1.0534851551055908,8.284248954603497,0.09172193671252228,-0.12575884439165097,0.010724369571997948,0.0,0.0,0.001053002484510008,0.0,0.0,0.00469473675228107,0.0,0.0,0.0,5.130709305300784e-05,-6.130073000775097e-05,-8.188939698135019e-07,5.130709305300784e-05,-6.130073000775097e-05,-8.188939698135019e-07
1.059222936630249,8.301363114956612,0.09291863300555385,-0.11879629112268061,0.010618887078361599,0.0,0.0,0.001080652273527332,0.0,0.0,0.004789193552845631,0.0,0.0,0.0,5.0647701447937784e-05,-5.989122834906805e-05,-7.846840578044584e-07,5.0647701447937784e-05,-5.989122834906805e-05,-7.846840578044584e-07
1.0650193691253662,8.318348240574466,0.09359034980160479,-0.11170419276491732,0.010507384296283213,0.0,0.0,0.0011084012875557671,0.0,0.0,0.004883399644874857,0.0,0.0,0.0,4.998517416428632e-05,-5.853512326004997e-05,-7.521297397270696e-07,4.998517416428632e-05,-5.853512326004997e-05,-7.521297397270696e-07
1.0707228183746338,8.344671198051856,0.09642152511482886,-0.10428125534600226,0.010434969649569553,0.0,0.0,0.001136986482543331,0.0,0.0,0.004979845286611193,0.0,0.0,0.0,4.935502075646e-05,-5.683418687762021e-05,-7.165426823419196e-07,4.935502075646e-05,-5.683418687762021e-05,-7.165426823419196e-07
1.0763773918151855,8.398415231949816,0.10363324571465514,-0.09780875936148736,0.010435356366101349,0.0,0.0,0.0011656623996901252,0.0,0.0,0.0050760040354274295,0.0,0.0,0.0,4.881280445682908e-05,-5.390287073306519e-05,-6.680157539033646e-07,4.881280445682908e-05,-5.390287073306519e-05,-6.680157539033646e-07
1.0820670127868652,8.486730504893643,0.11116355107226208,-0.09526010338012145,0.01045307173428241,0.0,0.0,0.00119463750203382,0.0,0.0,0.0051725804033451285,0.0,0.0,0.0,4.841991248813736e-05,-4.9313452034457446e-05,-6.025906911434384e-07,4.841991248813736e-05,-4.9313452034457446e-05,-6.025906911434384e-07
1.0877790451049805,8.602210333219496,0.11616870267274722,-0.09683915941413211,0.010441345896605109,0.0,0.0,0.001224346940847235,0.0,0.0,0.0052710107693938624,0.0,0.0,0.0,4.817408379269978e-05,-4.34460606239998e-05,-5.25051359402763e-07,4.817408379269978e-05,-4.34460606239998e-05,-5.25051359402763e-07
1.0935962200164795,8.729927510194482,0.11938895802184972,-0.09992629596092797,0.010407183681613025,0.0,0.0,0.0012547403807220486,0.0,0.0,0.005371103204661543,0.0,0.0,0.0,4.8013022186726796e-05,-3.7121209806507914e-05,-4.444704669358286e-07,4.8013022186726796e-05,-3.7121209806507914e-05,-4.444704669358286e-07
1.099266529083252,8.854388225385494,0.12119400796485816,-0.10256689461117804,0.010354132076711818,0.0,0.0,0.001286284706164639,0.0,0.0,0.005474358267565671,0.0,0.0,0.0,4.787018702890844e-05,-3.111982089845438e-05,-3.6929219990557746e-07,4.787018702890844e-05,-3.111982089845438e-05,-3.6929219990557746e-07
1.1049602031707764,8.964720306796215,0.12170068689239547,-0.1038854095202359,0.010284693425922626,0.0,0.0,0.0013176144160247137,0.0,0.0,0.005576296272695073,0.0,0.0,0.0,4.767538484873647e-05,-2.5924071286975185e-05,-3.0462510543477346e-07,4.767538484873647e-05,-2.5924071286975185e-05,-3.0462510543477346e-07
1.1107103824615479,9.053982649555183,0.12097536058474932,-0.10351732598882554,0.010209274791383878,0.0,0.0,0.0013496584805689112,0.0,0.0,0.005679943029652001,0.0,0.0,0.0,4.739551432874518e-05,-2.1820527563221002e-05,-2.534481379639307e-07,4.739551432874518e-05,-2.1820527563221002e-05,-2.534481379639307e-07
1.1163816452026367,9.118376009968598,0.11941277913513558,-0.1012599700297075,0.010133608170995156,0.0,0.0,0.00138262327577077,0.0,0.0,0.005785936598089767,0.0,0.0,0.0,4.700926736488614e-05,-1.8948243184032555e-05,-2.1705075961434654e-07,4.700926736488614e-05,-1.8948243184032555e-05,-2.1705075961434654e-07
1.12209153175354,9.156553747962393,0.11745914404972488,-0.09671069697112168,0.010059169324609797,0.0,0.0,0.0014157363623620526,0.0,0.0,0.005891780449036338,0.0,0.0,0.0,4.650525918501824e-05,-1.7347261162415924e-05,-1.954906630609367e-07,4.650525918501824e-05,-1.7347261162415924e-05,-1.954906630609367e-07
